[{"image_id": "1398441684091035", "city_id": 7258, "city": "Purujosa", "country": "Spain", "lat": 41.68259, "lon": -1.76519}, {"image_id": "1528021564195446", "city_id": 1842, "city": "Ejido Yucat\u00e1n", "country": "Mexico", "lat": 32.60435, "lon": -115.0938}, {"image_id": "1537864433764582", "city_id": 4555, "city": "Alberite de San Juan", "country": "Spain", "lat": 41.82009, "lon": -1.47063}, {"image_id": "1358312498204869", "city_id": 7786, "city": "Bainton", "country": "United Kingdom", "lat": 53.95, "lon": -0.53333}, {"image_id": "1371286207163747", "city_id": 3133, "city": "Jun\u00edn", "country": "Argentina", "lat": -34.59391, "lon": -60.94644}, {"image_id": "1387061358329255", "city_id": 444, "city": "Jenks", "country": "United States", "lat": 36.02287, "lon": -95.96833}, {"image_id": "5202670863123141", "city_id": 7679, "city": "Pott Shrigley", "country": "United Kingdom", "lat": 53.30957, "lon": -2.08405}, {"image_id": "2980774722222058", "city_id": 5175, "city": "Arbois", "country": "France", "lat": 46.90311, "lon": 5.77454}, {"image_id": "1468275213888299", "city_id": 5213, "city": "Heist-op-den-Berg", "country": "Belgium", "lat": 51.07537, "lon": 4.72827}, {"image_id": "2557018971273026", "city_id": 6279, "city": "Susurluk", "country": "Turkey", "lat": 39.91361, "lon": 28.15778}, {"image_id": "1487092785324277", "city_id": 8391, "city": "Linschoten", "country": "Netherlands", "lat": 52.0625, "lon": 4.91528}, {"image_id": "1436802590265794", "city_id": 7074, "city": "Ebersbach", "country": "Germany", "lat": 51.099, "lon": 13.1135}, {"image_id": "1494420591257410", "city_id": 3557, "city": "Bl\u00e9oul\u00e9kro", "country": "C\u00f4te d'Ivoire", "lat": 5.17531, "lon": -2.94004}, {"image_id": "1380698252293658", "city_id": 9347, "city": "Marquelia", "country": "Mexico", "lat": 16.58335, "lon": -98.81686}, {"image_id": "2822866144708842", "city_id": 5737, "city": "Tyengala", "country": "C\u00f4te d'Ivoire", "lat": 8.33971, "lon": -5.12556}, {"image_id": "1407559309765786", "city_id": 5909, "city": "Guanghe Chengguanzhen", "country": "China", "lat": 35.48153, "lon": 103.57604}, {"image_id": "1384105655282447", "city_id": 363, "city": "Z\u0103d\u0103reni", "country": "Romania", "lat": 46.13274, "lon": 21.21821}, {"image_id": "1381332142592768", "city_id": 1705, "city": "Apatzing\u00e1n", "country": "Mexico", "lat": 17.60803, "lon": -91.06687}, {"image_id": "1360749437636345", "city_id": 7831, "city": "Styl\u00edda", "country": "Greece", "lat": 38.91667, "lon": 22.61667}, {"image_id": "6112895378811168", "city_id": 1030, "city": "Yessentukskaya", "country": "Russian Federation", "lat": 44.02583, "lon": 42.87491}, {"image_id": "1384105655282447", "city_id": 1257, "city": "Remetea Mare", "country": "Romania", "lat": 45.77944, "lon": 21.37611}, {"image_id": "1357957621815054", "city_id": 5673, "city": "Bathurst Manor", "country": "Canada", "lat": 43.76481, "lon": -79.45606}, {"image_id": "1404229816599272", "city_id": 255, "city": "Zdzieszowice", "country": "Poland", "lat": 50.42482, "lon": 18.12349}, {"image_id": "1380608909227696", "city_id": 1440, "city": "S\u00f6dert\u00e4lje", "country": "Sweden", "lat": 59.19554, "lon": 17.62525}, {"image_id": "2840001816266562", "city_id": 6241, "city": "Khlung", "country": "Thailand", "lat": 12.45467, "lon": 102.22142}, {"image_id": "5891595724208700", "city_id": 7702, "city": "Lofthouse", "country": "United Kingdom", "lat": 53.72947, "lon": -1.49697}, {"image_id": "1437204053779988", "city_id": 9235, "city": "Limuru", "country": "Kenya", "lat": -1.1136, "lon": 36.64205}, {"image_id": "1362542340956213", "city_id": 6458, "city": "Combee Settlement", "country": "United States", "lat": 28.05835, "lon": -81.90536}, {"image_id": "1362298277781357", "city_id": 7096, "city": "Bad Sulza", "country": "Germany", "lat": 51.08929, "lon": 11.62474}, {"image_id": "1725998961123714", "city_id": 8230, "city": "San Jos\u00e9 el Saladillo (El Saladillo)", "country": "Mexico", "lat": 22.685, "lon": -102.03778}, {"image_id": "1565824943893777", "city_id": 8945, "city": "Gibsonia", "country": "United States", "lat": 40.63007, "lon": -79.9695}, {"image_id": "1477478613194231", "city_id": 2257, "city": "San Cesario di Lecce", "country": "Italy", "lat": 40.30221, "lon": 18.16098}, {"image_id": "1690818161433829", "city_id": 2240, "city": "Sassuolo", "country": "Italy", "lat": 44.5432, "lon": 10.7848}, {"image_id": "1417161372547099", "city_id": 745, "city": "B\u00e9b\u00e9dja", "country": "Chad", "lat": 8.6761, "lon": 16.566}, {"image_id": "2114984748655361", "city_id": 4227, "city": "Butzbach", "country": "Germany", "lat": 50.43395, "lon": 8.67122}, {"image_id": "1362207611128301", "city_id": 2059, "city": "Mosterhamn", "country": "Norway", "lat": 59.69919, "lon": 5.38585}, {"image_id": "3384914445146942", "city_id": 7129, "city": "S\u00f8ften", "country": "Denmark", "lat": 56.23801, "lon": 10.0851}, {"image_id": "1667208110689424", "city_id": 4630, "city": "Tocane-Saint-Apre", "country": "France", "lat": 45.25354, "lon": 0.49369}, {"image_id": "1354288448520452", "city_id": 7584, "city": "Le Mas-d'Agenais", "country": "France", "lat": 44.41108, "lon": 0.21739}, {"image_id": "1368953096860524", "city_id": 101, "city": "Malawag", "country": "Philippines", "lat": 13.38333, "lon": 123.28333}, {"image_id": "1426635531106528", "city_id": 9081, "city": "Alto", "country": "United States", "lat": 31.65045, "lon": -95.07272}, {"image_id": "1782974865478581", "city_id": 7741, "city": "Edworth", "country": "United Kingdom", "lat": 52.05597, "lon": -0.21715}, {"image_id": "1957177961087342", "city_id": 1124, "city": "Kizema", "country": "Russian Federation", "lat": 61.11304, "lon": 44.83017}, {"image_id": "1917329332048767", "city_id": 7255, "city": "Ribadavia", "country": "Spain", "lat": 42.28804, "lon": -8.14362}, {"image_id": "1523605138197131", "city_id": 3419, "city": "Zomplou", "country": "C\u00f4te d'Ivoire", "lat": 6.61944, "lon": -8.155}, {"image_id": "1462799427588514", "city_id": 2426, "city": "Pavia di Udine", "country": "Italy", "lat": 45.99502, "lon": 13.30367}, {"image_id": "1354151522061525", "city_id": 6154, "city": "Edsbyn", "country": "Sweden", "lat": 61.37692, "lon": 15.81747}, {"image_id": "1695435807657758", "city_id": 4830, "city": "Ramsbury", "country": "United Kingdom", "lat": 51.44373, "lon": -1.60257}, {"image_id": "1436211287266057", "city_id": 6607, "city": "Bol\u2019shaya Izhora", "country": "Russian Federation", "lat": 59.93819, "lon": 29.56859}, {"image_id": "1688726611328322", "city_id": 3544, "city": "Ahouanou", "country": "C\u00f4te d'Ivoire", "lat": 6.51495, "lon": -4.6295}, {"image_id": "1398141521577431", "city_id": 1770, "city": "Ejido del Tunal Nenaxi", "country": "Mexico", "lat": 19.74389, "lon": -99.90889}, {"image_id": "1641313206296148", "city_id": 5587, "city": "Auchenflower", "country": "Australia", "lat": -27.47443, "lon": 152.99213}, {"image_id": "1392164838167060", "city_id": 7893, "city": "Fontainebleau", "country": "France", "lat": 48.40908, "lon": 2.70177}, {"image_id": "1385792518727459", "city_id": 5626, "city": "Curtin", "country": "Australia", "lat": -35.32464, "lon": 149.07763}, {"image_id": "1479848299021687", "city_id": 7955, "city": "Mlad\u00e1 Boleslav", "country": "Czech Republic", "lat": 50.41135, "lon": 14.90318}, {"image_id": "1432246950731452", "city_id": 2505, "city": "Stiava", "country": "Italy", "lat": 43.8972, "lon": 10.31798}, {"image_id": "1998279230613214", "city_id": 4705, "city": "Pi\u00e9gut-Pluviers", "country": "France", "lat": 45.62288, "lon": 0.68955}, {"image_id": "3617687521711418", "city_id": 4566, "city": "L'Entregu/El Entrego", "country": "Spain", "lat": 43.28752, "lon": -5.638}, {"image_id": "1355094751531040", "city_id": 2457, "city": "Cosio Valtellino", "country": "Italy", "lat": 46.13509, "lon": 9.55164}, {"image_id": "1352433832279888", "city_id": 5, "city": "Miramar", "country": "Peru", "lat": -8.17945, "lon": -78.99381}, {"image_id": "1363069764078371", "city_id": 7532, "city": "Noyal-Muzillac", "country": "France", "lat": 47.59183, "lon": -2.45718}, {"image_id": "1400123480344115", "city_id": 8169, "city": "Hidalgo", "country": "Mexico", "lat": 25.48982, "lon": -103.14142}, {"image_id": "1913431745791145", "city_id": 7810, "city": "Windygates", "country": "United Kingdom", "lat": 56.19546, "lon": -3.05274}, {"image_id": "1421379462029744", "city_id": 9701, "city": "Bull Savannah", "country": "Jamaica", "lat": 17.88678, "lon": -77.59022}, {"image_id": "1787641178098233", "city_id": 2205, "city": "Vattaro", "country": "Italy", "lat": 45.99388, "lon": 11.21792}, {"image_id": "4248223925210782", "city_id": 5817, "city": "Gafargaon", "country": "Bangladesh", "lat": 24.432, "lon": 90.5585}, {"image_id": "2987571814863769", "city_id": 872, "city": "Stanislav", "country": "Ukraine", "lat": 46.57309, "lon": 32.15001}, {"image_id": "1419149828708087", "city_id": 8613, "city": "Tulare", "country": "United States", "lat": 36.20773, "lon": -119.34734}, {"image_id": "1352227121948172", "city_id": 8866, "city": "Avon-by-the-Sea", "country": "United States", "lat": 40.19234, "lon": -74.01597}, {"image_id": "2651751261636942", "city_id": 3269, "city": "Loftus", "country": "Australia", "lat": -34.04467, "lon": 151.04646}, {"image_id": "1362201697655147", "city_id": 8498, "city": "Santiago de Cao", "country": "Peru", "lat": -7.95889, "lon": -79.23917}, {"image_id": "1354620691597995", "city_id": 3045, "city": "Fanipol", "country": "Belarus", "lat": 53.74998, "lon": 27.33338}, {"image_id": "1406130020054701", "city_id": 3601, "city": "Howard", "country": "United States", "lat": 44.01081, "lon": -97.52674}, {"image_id": "1414691459238715", "city_id": 3773, "city": "Th\u1ecb Tr\u1ea5n Xu\u00e2n Ho\u00e0", "country": "Viet Nam", "lat": 22.90243, "lon": 106.07737}, {"image_id": "4242531365765735", "city_id": 787, "city": "Ta\u015fp\u0131nar", "country": "Turkey", "lat": 38.17963, "lon": 34.02499}, {"image_id": "1353636971686888", "city_id": 5062, "city": "Ch\u00e2teauneuf-sur-Is\u00e8re", "country": "France", "lat": 45.01667, "lon": 4.93333}, {"image_id": "1405039040332848", "city_id": 7487, "city": "Sainte-Pazanne", "country": "France", "lat": 47.10355, "lon": -1.81045}, {"image_id": "1423830854961385", "city_id": 7602, "city": "La Fouillade", "country": "France", "lat": 44.23121, "lon": 2.04158}, {"image_id": "1863462120506478", "city_id": 9729, "city": "Shap Pat Heung", "country": "Hong Kong, China", "lat": 22.4248, "lon": 114.03581}, {"image_id": "1366880580698975", "city_id": 4584, "city": "Savukoski", "country": "Finland", "lat": 67.2925, "lon": 28.15806}, {"image_id": "1849520515242664", "city_id": 202, "city": "Harunabad", "country": "Pakistan", "lat": 29.61206, "lon": 73.13802}, {"image_id": "1399802623746322", "city_id": 9658, "city": "Terres", "country": "Italy", "lat": 46.30991, "lon": 11.02307}, {"image_id": "2933470756932962", "city_id": 6011, "city": "Jincheng", "country": "China", "lat": 31.74422, "lon": 119.57416}, {"image_id": "1432419153764074", "city_id": 4468, "city": "Lominchar", "country": "Spain", "lat": 40.09061, "lon": -3.96713}, {"image_id": "1440545623073025", "city_id": 8593, "city": "Garden Acres", "country": "United States", "lat": 37.96381, "lon": -121.22939}, {"image_id": "1404221459940629", "city_id": 4221, "city": "Dasing", "country": "Germany", "lat": 48.38482, "lon": 11.04667}, {"image_id": "1359344651264777", "city_id": 7649, "city": "Totton", "country": "United Kingdom", "lat": 50.91877, "lon": -1.49037}, {"image_id": "1412323802464510", "city_id": 6784, "city": "Coliba\u015fi", "country": "Romania", "lat": 44.20222, "lon": 26.19472}, {"image_id": "1385792752824253", "city_id": 1283, "city": "Morteni", "country": "Romania", "lat": 44.66667, "lon": 25.23333}, {"image_id": "1462799427588514", "city_id": 5047, "city": "Dampierre-en-Burly", "country": "France", "lat": 47.76143, "lon": 2.51962}, {"image_id": "2933640410289587", "city_id": 1174, "city": "Topchikha", "country": "Russian Federation", "lat": 52.8192, "lon": 83.1185}, {"image_id": "1358262608088249", "city_id": 3286, "city": "Karalee", "country": "Australia", "lat": -27.56485, "lon": 152.82446}, {"image_id": "1419195688556719", "city_id": 5045, "city": "Die", "country": "France", "lat": 44.7536, "lon": 5.37033}, {"image_id": "1691040341084046", "city_id": 735, "city": "Kh\u0101n Shaykh\u016bn", "country": "Syrian Arab Republic", "lat": 35.44208, "lon": 36.65095}, {"image_id": "1446180672789336", "city_id": 8487, "city": "Cascabel", "country": "Panama", "lat": 8.52723, "lon": -81.87593}, {"image_id": "2636798246478098", "city_id": 895, "city": "Maliyivka", "country": "Ukraine", "lat": 47.48547, "lon": 32.73167}, {"image_id": "1399802623746322", "city_id": 2577, "city": "Netreti\u0107", "country": "Croatia", "lat": 45.50889, "lon": 15.41333}, {"image_id": "1440277646313239", "city_id": 270, "city": "Sokolniki", "country": "Poland", "lat": 51.30738, "lon": 18.33275}, {"image_id": "1601040767131508", "city_id": 5177, "city": "Allonnes", "country": "France", "lat": 47.29339, "lon": 0.02277}, {"image_id": "1358456994535058", "city_id": 6793, "city": "Burzuc", "country": "Romania", "lat": 47.15552, "lon": 22.17096}, {"image_id": "1361651284213808", "city_id": 377, "city": "Boonsboro", "country": "United States", "lat": 39.50621, "lon": -77.65249}, {"image_id": "1354894055434043", "city_id": 3639, "city": "Deer Park", "country": "United States", "lat": 38.68185, "lon": -120.82327}, {"image_id": "1466357867037421", "city_id": 3622, "city": "Spencer", "country": "United States", "lat": 44.75774, "lon": -90.2968}, {"image_id": "1359260658326302", "city_id": 532, "city": "Near North Side", "country": "United States", "lat": 41.90003, "lon": -87.6345}, {"image_id": "1493216274867093", "city_id": 2477, "city": "Pianengo", "country": "Italy", "lat": 45.40217, "lon": 9.69476}, {"image_id": "1400123304007863", "city_id": 1859, "city": "Ibarrilla", "country": "Mexico", "lat": 21.18664, "lon": -101.64576}, {"image_id": "1404131553442572", "city_id": 2302, "city": "Ordona", "country": "Italy", "lat": 41.31501, "lon": 15.62832}, {"image_id": "1355094751531040", "city_id": 4843, "city": "Mochdre", "country": "United Kingdom", "lat": 52.48333, "lon": -3.36667}, {"image_id": "2092091014303953", "city_id": 4100, "city": "Nordkirchen", "country": "Germany", "lat": 51.73827, "lon": 7.52197}, {"image_id": "1565824943893777", "city_id": 9035, "city": "Stratford", "country": "United States", "lat": 39.82678, "lon": -75.01545}, {"image_id": "1390256495183830", "city_id": 8884, "city": "Wallington", "country": "United States", "lat": 40.85316, "lon": -74.11375}, {"image_id": "1389805294750025", "city_id": 5320, "city": "Campinas", "country": "Brazil", "lat": -27.59444, "lon": -48.60694}, {"image_id": "3592083501043107", "city_id": 3318, "city": "Madora Bay", "country": "Australia", "lat": -32.46951, "lon": 115.75264}, {"image_id": "1664296630728289", "city_id": 6740, "city": "Mo\u0163ca", "country": "Romania", "lat": 47.25, "lon": 26.61667}, {"image_id": "1435846523438971", "city_id": 7398, "city": "Ranua", "country": "Finland", "lat": 65.91667, "lon": 26.53333}, {"image_id": "1454290851794319", "city_id": 940, "city": "Warrior", "country": "United States", "lat": 33.81427, "lon": -86.80944}, {"image_id": "1911464445689362", "city_id": 2772, "city": "Kovalam", "country": "India", "lat": 8.36667, "lon": 76.99667}, {"image_id": "1390826578451463", "city_id": 6801, "city": "Boureni", "country": "Romania", "lat": 47.21314, "lon": 26.63092}, {"image_id": "1370842310054567", "city_id": 9577, "city": "Camairago", "country": "Italy", "lat": 45.20527, "lon": 9.72746}, {"image_id": "1519140732171848", "city_id": 214, "city": "Jod\u0142\u00f3wka-Wa\u0142ki", "country": "Poland", "lat": 50.04992, "lon": 21.13332}, {"image_id": "3330643733902313", "city_id": 3438, "city": "Cahri", "country": "Azerbaijan", "lat": 39.34837, "lon": 45.41557}, {"image_id": "1806383749535017", "city_id": 4408, "city": "Sant Vicen\u00e7 dels Horts", "country": "Spain", "lat": 41.39317, "lon": 2.00689}, {"image_id": "1370833257208167", "city_id": 2977, "city": "Quebrangulo", "country": "Brazil", "lat": -9.31889, "lon": -36.47111}, {"image_id": "1468358267129863", "city_id": 1014, "city": "\u0160abac", "country": "Serbia", "lat": 44.74667, "lon": 19.69}, {"image_id": "3905621432867052", "city_id": 8067, "city": "Audoin Sant\u00e9", "country": "C\u00f4te d'Ivoire", "lat": 5.28995, "lon": -4.13712}, {"image_id": "1568346540309009", "city_id": 8651, "city": "North Plains", "country": "United States", "lat": 45.59706, "lon": -122.99344}, {"image_id": "1437138337227971", "city_id": 3532, "city": "Bo\u00e9 Sowada", "country": "C\u00f4te d'Ivoire", "lat": 6.35479, "lon": -5.67337}, {"image_id": "2970055353279652", "city_id": 1435, "city": "Al Hasaheisa", "country": "Sudan, The Republic of", "lat": 14.75264, "lon": 33.29836}, {"image_id": "1359837814380820", "city_id": 3766, "city": "Th\u1ecb Tr\u1ea5n Kh\u00e1nh Y\u00ean", "country": "Viet Nam", "lat": 22.08935, "lon": 104.25149}, {"image_id": "1416081312062992", "city_id": 3554, "city": "Samo", "country": "C\u00f4te d'Ivoire", "lat": 5.284, "lon": -3.51785}, {"image_id": "1760229957517893", "city_id": 6365, "city": "Vlasivka", "country": "Ukraine", "lat": 49.11832, "lon": 33.27971}, {"image_id": "1487092785324277", "city_id": 5848, "city": "Leopoldsburg", "country": "Belgium", "lat": 51.11667, "lon": 5.25}, {"image_id": "1510126216498410", "city_id": 8593, "city": "Garden Acres", "country": "United States", "lat": 37.96381, "lon": -121.22939}, {"image_id": "1354006618599342", "city_id": 138, "city": "Danglas", "country": "Philippines", "lat": 17.7009, "lon": 120.6556}, {"image_id": "1352694398664033", "city_id": 8598, "city": "Lemon Grove", "country": "United States", "lat": 32.74255, "lon": -117.03142}, {"image_id": "1386962388686820", "city_id": 9356, "city": "La Cerquilla", "country": "Mexico", "lat": 17.90786, "lon": -95.05497}, {"image_id": "1368748423497247", "city_id": 1353, "city": "Brosc\u0103u\u0163i", "country": "Romania", "lat": 47.95, "lon": 26.45}, {"image_id": "1938587763158133", "city_id": 332, "city": "Ash Shuhad\u0101\u2019", "country": "West Bank and Gaza Strip", "lat": 32.42949, "lon": 35.27112}, {"image_id": "1520791412060268", "city_id": 554, "city": "Shelburne Falls", "country": "United States", "lat": 42.60425, "lon": -72.73926}, {"image_id": "1373914492977780", "city_id": 6648, "city": "Nikolayevskiy", "country": "Russian Federation", "lat": 51.65526, "lon": 107.80068}, {"image_id": "1359328972127425", "city_id": 7516, "city": "Pl\u00e9n\u00e9e-Jugon", "country": "France", "lat": 48.36451, "lon": -2.40015}, {"image_id": "1360146894793501", "city_id": 2933, "city": "Feluy", "country": "Belgium", "lat": 50.56258, "lon": 4.25098}, {"image_id": "1362432120913402", "city_id": 1646, "city": "San Nicol\u00e1s", "country": "Mexico", "lat": 20.32218, "lon": -98.18781}, {"image_id": "1441280190607575", "city_id": 6413, "city": "Komyshivka", "country": "Ukraine", "lat": 45.51876, "lon": 29.12375}, {"image_id": "1501839606974540", "city_id": 3456, "city": "Natore", "country": "Bangladesh", "lat": 24.41112, "lon": 88.98673}, {"image_id": "1476244806468079", "city_id": 8352, "city": "Villanueva", "country": "Nicaragua", "lat": 12.96353, "lon": -86.81517}, {"image_id": "1365188483881714", "city_id": 8261, "city": "Pueblo Nuevo", "country": "Mexico", "lat": 18.94806, "lon": -99.58417}, {"image_id": "4026866554087670", "city_id": 1087, "city": "Oyskhara", "country": "Russian Federation", "lat": 43.26402, "lon": 46.24803}, {"image_id": "3496568840600289", "city_id": 5819, "city": "Westrozebeke", "country": "Belgium", "lat": 50.93178, "lon": 3.01001}, {"image_id": "2474182622761371", "city_id": 5103, "city": "H\u0159ebe\u010d", "country": "Czech Republic", "lat": 50.13595, "lon": 14.16446}, {"image_id": "1388778988184151", "city_id": 7882, "city": "Habsheim", "country": "France", "lat": 47.72975, "lon": 7.41801}, {"image_id": "1418302998530850", "city_id": 3978, "city": "Shitan", "country": "China", "lat": 30.06896, "lon": 106.50291}, {"image_id": "4248223925210782", "city_id": 2813, "city": "Birbhaddar", "country": "India", "lat": 30.0712, "lon": 78.28189}, {"image_id": "1767373866768913", "city_id": 3560, "city": "Palmci", "country": "C\u00f4te d'Ivoire", "lat": 5.27818, "lon": -4.98775}, {"image_id": "3263091550493968", "city_id": 9938, "city": "Malpe", "country": "India", "lat": 13.34962, "lon": 74.70394}, {"image_id": "1690818161433829", "city_id": 3489, "city": "Kuringen", "country": "Belgium", "lat": 50.94426, "lon": 5.29902}, {"image_id": "1394215394277043", "city_id": 594, "city": "Wymore", "country": "United States", "lat": 40.12222, "lon": -96.66252}, {"image_id": "1377138099878271", "city_id": 9328, "city": "El Ed\u00e9n", "country": "Mexico", "lat": 16.29191, "lon": -91.63755}, {"image_id": "1367843247226044", "city_id": 9721, "city": "Quinh\u00e1mel", "country": "Guinea-Bissau", "lat": 11.88694, "lon": -15.85556}, {"image_id": "1528021564195446", "city_id": 3053, "city": "Fernie", "country": "Canada", "lat": 49.49996, "lon": -115.06871}, {"image_id": "1390112984865222", "city_id": 5439, "city": "Capilla del Monte", "country": "Argentina", "lat": -30.86088, "lon": -64.52515}, {"image_id": "1356780701695084", "city_id": 7261, "city": "Puebla de San Medel", "country": "Spain", "lat": 40.51073, "lon": -5.73673}, {"image_id": "1912860529222349", "city_id": 4916, "city": "Belfast", "country": "United Kingdom", "lat": 54.59682, "lon": -5.92541}, {"image_id": "1640538686155383", "city_id": 5514, "city": "Gaspoltshofen", "country": "Austria", "lat": 48.14324, "lon": 13.73643}, {"image_id": "1765622353599810", "city_id": 2862, "city": "B\u0101neh", "country": "Iran, Islamic Rep. of", "lat": 35.9975, "lon": 45.8853}, {"image_id": "1586441215500192", "city_id": 3527, "city": "Botind\u00e9", "country": "C\u00f4te d'Ivoire", "lat": 5.7781, "lon": -4.75524}, {"image_id": "1390826578451463", "city_id": 7098, "city": "Bad Hersfeld", "country": "Germany", "lat": 50.87197, "lon": 9.70891}, {"image_id": "1412881259571374", "city_id": 8604, "city": "Pine Valley", "country": "United States", "lat": 32.82144, "lon": -116.52918}, {"image_id": "1356830928477602", "city_id": 9236, "city": "Kimbimbi", "country": "Kenya", "lat": -0.62233, "lon": 37.36482}, {"image_id": "1463673997898108", "city_id": 8087, "city": "Blahou", "country": "C\u00f4te d'Ivoire", "lat": 4.93107, "lon": -6.55781}, {"image_id": "1406970063007700", "city_id": 586, "city": "La Plata", "country": "United States", "lat": 40.02337, "lon": -92.49158}, {"image_id": "4463765170377026", "city_id": 6128, "city": "Star\u00e9 K\u0159e\u010dany", "country": "Czech Republic", "lat": 50.95044, "lon": 14.49617}, {"image_id": "1371972904191653", "city_id": 2032, "city": "De Hagen", "country": "Netherlands", "lat": 51.99381, "lon": 5.10263}, {"image_id": "1446210966252872", "city_id": 4311, "city": "Collo", "country": "Algeria", "lat": 37.00563, "lon": 6.56049}, {"image_id": "1528220164484288", "city_id": 2504, "city": "Fulgatore-Torretta", "country": "Italy", "lat": 37.94977, "lon": 12.69303}, {"image_id": "1462799427588514", "city_id": 5022, "city": "Harfleur", "country": "France", "lat": 49.5066, "lon": 0.19827}, {"image_id": "1435469477138284", "city_id": 4537, "city": "B\u00e1scones de Ojeda", "country": "Spain", "lat": 42.67064, "lon": -4.52693}, {"image_id": "1644211672444248", "city_id": 1707, "city": "Ant\u00f3n Lizardo", "country": "Mexico", "lat": 19.05962, "lon": -95.99272}, {"image_id": "1408132159684935", "city_id": 7421, "city": "Volvic", "country": "France", "lat": 45.87196, "lon": 3.03832}, {"image_id": "1374796156452012", "city_id": 5311, "city": "Bras\u00edlia", "country": "Brazil", "lat": -15.77972, "lon": -47.92972}, {"image_id": "1401262887211079", "city_id": 7784, "city": "Barmston", "country": "United Kingdom", "lat": 54.01412, "lon": -0.22857}, {"image_id": "1372294090600735", "city_id": 3111, "city": "Clorinda", "country": "Argentina", "lat": -25.28627, "lon": -57.72168}, {"image_id": "1356862364700536", "city_id": 9717, "city": "Melchor de Mencos", "country": "Guatemala", "lat": 17.06606, "lon": -89.15229}, {"image_id": "1624557288092025", "city_id": 2136, "city": "Puerto Rico", "country": "Peru", "lat": -6.99222, "lon": -76.41917}, {"image_id": "1395359404190333", "city_id": 8886, "city": "Wharton", "country": "United States", "lat": 40.89315, "lon": -74.58183}, {"image_id": "1432246950731452", "city_id": 2419, "city": "Amatrice", "country": "Italy", "lat": 42.62664, "lon": 13.29509}, {"image_id": "1409373863193715", "city_id": 6106, "city": "Valle del Guamuez", "country": "Colombia", "lat": 0.4525, "lon": -76.91917}, {"image_id": "1415417432242070", "city_id": 7212, "city": "Fuensanta", "country": "Spain", "lat": 39.23333, "lon": -2.06667}, {"image_id": "1489376798351031", "city_id": 4338, "city": "Villar del Pedroso", "country": "Spain", "lat": 39.70631, "lon": -5.19583}, {"image_id": "1370842310054567", "city_id": 2520, "city": "Baganzola", "country": "Italy", "lat": 44.85513, "lon": 10.30706}, {"image_id": "1398159851089069", "city_id": 3300, "city": "Blind Bight", "country": "Australia", "lat": -38.21427, "lon": 145.3377}, {"image_id": "1661474584336424", "city_id": 3462, "city": "Xhendremael", "country": "Belgium", "lat": 50.70454, "lon": 5.47984}, {"image_id": "2092091014303953", "city_id": 6148, "city": "Fritsla", "country": "Sweden", "lat": 57.55655, "lon": 12.78457}, {"image_id": "1401271083699858", "city_id": 9812, "city": "Pangkalan Balai", "country": "Indonesia", "lat": -2.8812, "lon": 104.3943}, {"image_id": "2995430164074160", "city_id": 5156, "city": "Speicher", "country": "Germany", "lat": 49.93333, "lon": 6.63333}, {"image_id": "1486311261718725", "city_id": 4583, "city": "Uusikaupunki", "country": "Finland", "lat": 60.80043, "lon": 21.40841}, {"image_id": "1426120407720745", "city_id": 2489, "city": "Villa Rendena", "country": "Italy", "lat": 46.0627, "lon": 10.7125}, {"image_id": "1450794888607941", "city_id": 5268, "city": "Aracati", "country": "Brazil", "lat": -4.56167, "lon": -37.76972}, {"image_id": "1806383749535017", "city_id": 8129, "city": "Zemoura", "country": "Algeria", "lat": 35.72251, "lon": 0.75509}, {"image_id": "1382814675912936", "city_id": 5801, "city": "West Haven", "country": "Australia", "lat": -31.63555, "lon": 152.78378}, {"image_id": "1437262880492029", "city_id": 8630, "city": "Farwell", "country": "United States", "lat": 34.38341, "lon": -103.038}, {"image_id": "1819438855246913", "city_id": 9860, "city": "Kinsale", "country": "Ireland", "lat": 51.7075, "lon": -8.53056}, {"image_id": "1386490019421324", "city_id": 5293, "city": "Nova Friburgo", "country": "Brazil", "lat": -22.28194, "lon": -42.53111}, {"image_id": "1548639669378399", "city_id": 9831, "city": "Batubantar", "country": "Indonesia", "lat": -6.3501, "lon": 106.0444}, {"image_id": "2195376527266013", "city_id": 6401, "city": "Lanivtsi", "country": "Ukraine", "lat": 49.86103, "lon": 26.09052}, {"image_id": "1373192883036212", "city_id": 8214, "city": "Guayalejo", "country": "Mexico", "lat": 22.38306, "lon": -98.48306}, {"image_id": "1534818673667530", "city_id": 8929, "city": "Lexington", "country": "United States", "lat": 40.67867, "lon": -82.58239}, {"image_id": "1651255995246262", "city_id": 3982, "city": "Shaoyun", "country": "China", "lat": 29.98458, "lon": 105.98421}, {"image_id": "1357273047976545", "city_id": 9784, "city": "Cs\u00f6km\u0151", "country": "Hungary", "lat": 47.03333, "lon": 21.3}, {"image_id": "2020741301422454", "city_id": 3223, "city": "Mannum", "country": "Australia", "lat": -34.91529, "lon": 139.30325}, {"image_id": "1355094751531040", "city_id": 5696, "city": "Monthey", "country": "Switzerland", "lat": 46.25451, "lon": 6.95406}, {"image_id": "1641097732936955", "city_id": 5098, "city": "Letovice", "country": "Czech Republic", "lat": 49.54709, "lon": 16.57357}, {"image_id": "1374995366520556", "city_id": 5094, "city": "M\u00fdto", "country": "Czech Republic", "lat": 49.78904, "lon": 13.73461}, {"image_id": "1476244806468079", "city_id": 8474, "city": "Los Corot\u00faes", "country": "Panama", "lat": 8.41171, "lon": -81.0997}, {"image_id": "1488315708324294", "city_id": 3745, "city": "Yozyovon", "country": "Uzbekistan", "lat": 40.66139, "lon": 71.74361}, {"image_id": "1411732656445566", "city_id": 3737, "city": "Chicago Loop", "country": "United States", "lat": 41.88407, "lon": -87.6333}, {"image_id": "1357680438123802", "city_id": 7551, "city": "Meursac", "country": "France", "lat": 45.64978, "lon": -0.80953}, {"image_id": "1362936491068632", "city_id": 2379, "city": "Certosa", "country": "Italy", "lat": 46.7045, "lon": 10.91088}, {"image_id": "1391163914736299", "city_id": 8114, "city": "Valdeolmos", "country": "Spain", "lat": 40.63708, "lon": -3.45064}, {"image_id": "1357680438123802", "city_id": 7701, "city": "Longstanton", "country": "United Kingdom", "lat": 52.28076, "lon": 0.04558}, {"image_id": "1690818161433829", "city_id": 3204, "city": "Dietach", "country": "Austria", "lat": 48.09018, "lon": 14.41647}, {"image_id": "5558989757525927", "city_id": 2737, "city": "R\u0101n\u012bbennur", "country": "India", "lat": 14.62239, "lon": 75.62951}, {"image_id": "1351885675626000", "city_id": 4330, "city": "Al Waqf", "country": "Egypt", "lat": 26.08657, "lon": 32.42265}, {"image_id": "1578178336058621", "city_id": 1929, "city": "Uni\u00f3n Agropecuarios L\u00e1zaro C\u00e1rdenas del Norte", "country": "Mexico", "lat": 25.83222, "lon": -100.38417}, {"image_id": "1529453214280053", "city_id": 6324, "city": "Osmanc\u0131k", "country": "Turkey", "lat": 40.97818, "lon": 34.8047}, {"image_id": "1354288448520452", "city_id": 4822, "city": "Saundersfoot", "country": "United Kingdom", "lat": 51.70945, "lon": -4.70215}, {"image_id": "1449077885448069", "city_id": 9099, "city": "Kerens", "country": "United States", "lat": 32.13321, "lon": -96.22775}, {"image_id": "1522232977965201", "city_id": 7265, "city": "Pizarral", "country": "Spain", "lat": 40.6145, "lon": -5.65238}, {"image_id": "2992984191023509", "city_id": 331, "city": "\u2018Aynab\u016bs", "country": "West Bank and Gaza Strip", "lat": 32.14706, "lon": 35.24513}, {"image_id": "1408132159684935", "city_id": 7930, "city": "Cabanac-et-Villagrains", "country": "France", "lat": 44.6, "lon": -0.55}, {"image_id": "1805246266671922", "city_id": 6967, "city": "Neusitz", "country": "Germany", "lat": 49.37185, "lon": 10.22559}, {"image_id": "1374487986343622", "city_id": 7908, "city": "Cruseilles", "country": "France", "lat": 46.0298, "lon": 6.10831}, {"image_id": "1400374154013278", "city_id": 8044, "city": "Gbomb\u00e9lo I", "country": "C\u00f4te d'Ivoire", "lat": 7.59058, "lon": -7.64526}, {"image_id": "1536776423821837", "city_id": 2690, "city": "Terenure", "country": "Ireland", "lat": 53.30972, "lon": -6.28528}, {"image_id": "1760229957517893", "city_id": 903, "city": "Kramatorsk", "country": "Ukraine", "lat": 48.73049, "lon": 37.58793}, {"image_id": "1375286293066300", "city_id": 1720, "city": "Rojas de Cuauht\u00e9moc", "country": "Mexico", "lat": 17.00587, "lon": -96.61919}, {"image_id": "1367843247226044", "city_id": 3536, "city": "Blonleu", "country": "C\u00f4te d'Ivoire", "lat": 7.12843, "lon": -8.06468}, {"image_id": "1447833885735925", "city_id": 5949, "city": "Lanzhou", "country": "China", "lat": 36.05701, "lon": 103.83987}, {"image_id": "4097336260334297", "city_id": 1233, "city": "T\u0103m\u0103\u0219eu", "country": "Romania", "lat": 47.22116, "lon": 21.9276}, {"image_id": "1468626007223587", "city_id": 2193, "city": "Villimpenta", "country": "Italy", "lat": 45.14111, "lon": 11.0317}, {"image_id": "1353232265059884", "city_id": 6009, "city": "Dongzhen", "country": "China", "lat": 22.37971, "lon": 110.93885}, {"image_id": "1357724404606106", "city_id": 4589, "city": "Lemi", "country": "Finland", "lat": 61.06244, "lon": 27.80571}, {"image_id": "1424244378178419", "city_id": 8172, "city": "El Sa\u00faz", "country": "Mexico", "lat": 20.47774, "lon": -100.1154}, {"image_id": "1437705263300290", "city_id": 5546, "city": "Sebastopol", "country": "Australia", "lat": -37.58532, "lon": 143.83953}, {"image_id": "1484632618767146", "city_id": 9507, "city": "Montesarchio", "country": "Italy", "lat": 41.06227, "lon": 14.64096}, {"image_id": "1538052649865474", "city_id": 373, "city": "Valea \u0218o\u0219ii", "country": "Romania", "lat": 46.4618, "lon": 26.54992}, {"image_id": "1421446565190362", "city_id": 6884, "city": "Nabulao", "country": "Philippines", "lat": 9.6616, "lon": 122.4577}, {"image_id": "1366383183739465", "city_id": 2694, "city": "Gweedore", "country": "Ireland", "lat": 55.05028, "lon": -8.23194}, {"image_id": "1667651463435778", "city_id": 6956, "city": "Oberpframmern", "country": "Germany", "lat": 48.02202, "lon": 11.81331}, {"image_id": "1399802623746322", "city_id": 4563, "city": "Areny de Noguera / Ar\u00e9n", "country": "Spain", "lat": 42.25817, "lon": 0.72141}, {"image_id": "1361762077513005", "city_id": 6265, "city": "Mateur", "country": "Tunisia", "lat": 37.04045, "lon": 9.66557}, {"image_id": "1480217022525518", "city_id": 6361, "city": "Zavetnoye", "country": "Ukraine", "lat": 45.32697, "lon": 34.80837}, {"image_id": "1356811941366687", "city_id": 9741, "city": "La Ceiba", "country": "Honduras", "lat": 15.75971, "lon": -86.78221}, {"image_id": "1388691604851412", "city_id": 220, "city": "Raczki", "country": "Poland", "lat": 53.98749, "lon": 22.78487}, {"image_id": "5415274978547084", "city_id": 6670, "city": "Kibuye", "country": "Rwanda", "lat": -2.06028, "lon": 29.34778}, {"image_id": "1555777775286555", "city_id": 171, "city": "Batutitik", "country": "Philippines", "lat": 6.22333, "lon": 125.25194}, {"image_id": "1352787072311936", "city_id": 8423, "city": "V\u00e5g\u00e5mo", "country": "Norway", "lat": 61.87505, "lon": 9.09671}, {"image_id": "1361373521461481", "city_id": 259, "city": "Wr\u0119czyca Wielka", "country": "Poland", "lat": 50.84589, "lon": 18.92086}, {"image_id": "1363468000879438", "city_id": 5044, "city": "Douai", "country": "France", "lat": 50.37069, "lon": 3.07922}, {"image_id": "1516541569166506", "city_id": 4020, "city": "Manaure", "country": "Colombia", "lat": 11.77505, "lon": -72.44447}, {"image_id": "1411947186103902", "city_id": 9114, "city": "Spring Valley", "country": "United States", "lat": 29.78967, "lon": -95.50355}, {"image_id": "1585585388910168", "city_id": 5611, "city": "Greystanes", "country": "Australia", "lat": -33.82346, "lon": 150.94607}, {"image_id": "1376711186320746", "city_id": 4032, "city": "Cachipay", "country": "Colombia", "lat": 4.73035, "lon": -74.43663}, {"image_id": "1484910201889723", "city_id": 1678, "city": "Huejotzingo", "country": "Mexico", "lat": 19.15892, "lon": -98.40824}, {"image_id": "1355094751531040", "city_id": 699, "city": "Vnanje Gorice", "country": "Slovenia", "lat": 46.00722, "lon": 14.42194}, {"image_id": "1353731211665265", "city_id": 7856, "city": "Kamp\u00e1nis", "country": "Greece", "lat": 40.88951, "lon": 22.91682}, {"image_id": "1530425014466121", "city_id": 3523, "city": "Br\u00e9gbo", "country": "C\u00f4te d'Ivoire", "lat": 5.30406, "lon": -3.82188}, {"image_id": "2942391022698718", "city_id": 6310, "city": "Bodrum", "country": "Turkey", "lat": 37.03833, "lon": 27.42917}, {"image_id": "1385792752824253", "city_id": 1254, "city": "Ro\u0219iori", "country": "Romania", "lat": 44.25633, "lon": 22.92838}, {"image_id": "1460853197689724", "city_id": 595, "city": "Chester", "country": "United States", "lat": 42.95675, "lon": -71.25728}, {"image_id": "1918656294953159", "city_id": 2743, "city": "Proddat\u016br", "country": "India", "lat": 14.7502, "lon": 78.54813}, {"image_id": "1389303945209653", "city_id": 2709, "city": "Ni\u1e95\u1e95an", "country": "Israel", "lat": 31.73854, "lon": 34.62985}, {"image_id": "1538052649865474", "city_id": 9781, "city": "Mez\u0151keresztes", "country": "Hungary", "lat": 47.83333, "lon": 20.7}, {"image_id": "1352689572073677", "city_id": 6663, "city": "Novyy", "country": "Russian Federation", "lat": 43.36438, "lon": 132.02109}, {"image_id": "4169284946466674", "city_id": 3936, "city": "Beijing", "country": "China", "lat": 39.9075, "lon": 116.39723}, {"image_id": "1553885644802089", "city_id": 8882, "city": "South Orange", "country": "United States", "lat": 40.74899, "lon": -74.26126}, {"image_id": "1644211672444248", "city_id": 8169, "city": "Hidalgo", "country": "Mexico", "lat": 25.48982, "lon": -103.14142}, {"image_id": "1362944317834754", "city_id": 6221, "city": "Pathio", "country": "Thailand", "lat": 10.70908, "lon": 99.3182}, {"image_id": "1498709147192742", "city_id": 5473, "city": "Perlsdorf", "country": "Austria", "lat": 46.91361, "lon": 15.81417}, {"image_id": "1433186830348732", "city_id": 2583, "city": "Moron", "country": "Haiti", "lat": 18.56039, "lon": -74.25777}, {"image_id": "1452194075311283", "city_id": 8941, "city": "Emigsville", "country": "United States", "lat": 40.02176, "lon": -76.72802}, {"image_id": "1468930470615244", "city_id": 6169, "city": "Podlehnik", "country": "Slovenia", "lat": 46.33528, "lon": 15.88}, {"image_id": "1589287791658253", "city_id": 3107, "city": "Marcos Paz", "country": "Argentina", "lat": -34.78233, "lon": -58.83777}, {"image_id": "3888495794703550", "city_id": 3838, "city": "D\u00e9tikaha", "country": "C\u00f4te d'Ivoire", "lat": 9.92581, "lon": -5.16847}, {"image_id": "1424975634841514", "city_id": 6844, "city": "Taganak", "country": "Philippines", "lat": 6.07328, "lon": 118.31226}, {"image_id": "1399802623746322", "city_id": 2473, "city": "Morengo", "country": "Italy", "lat": 45.53148, "lon": 9.70586}, {"image_id": "1362711874110827", "city_id": 5470, "city": "Ried in der Riedmark", "country": "Austria", "lat": 48.27114, "lon": 14.52796}, {"image_id": "1353794968576144", "city_id": 9851, "city": "Pulau Temiang", "country": "Indonesia", "lat": -1.22495, "lon": 102.24228}, {"image_id": "5970679726329121", "city_id": 6617, "city": "Tr\u00ebkhgornyy", "country": "Russian Federation", "lat": 54.815, "lon": 58.45917}, {"image_id": "2114984748655361", "city_id": 3409, "city": "Sonnhalde", "country": "Switzerland", "lat": 47.45329, "lon": 8.46091}, {"image_id": "1550679825582390", "city_id": 3979, "city": "Shayu", "country": "China", "lat": 30.24283, "lon": 106.36733}, {"image_id": "1580632439072225", "city_id": 80, "city": "Pambujan", "country": "Philippines", "lat": 12.5642, "lon": 124.9276}, {"image_id": "1388735195316778", "city_id": 2864, "city": "Vogar", "country": "Iceland", "lat": 63.9816, "lon": -22.38473}, {"image_id": "1982492575470261", "city_id": 9540, "city": "Domegge di Cadore", "country": "Italy", "lat": 46.45666, "lon": 12.40724}, {"image_id": "1446210966252872", "city_id": 4495, "city": "Cudillero", "country": "Spain", "lat": 43.56217, "lon": -6.14589}, {"image_id": "3074620109482709", "city_id": 8696, "city": "Tanglewilde-Thompson Place", "country": "United States", "lat": 47.05116, "lon": -122.78081}, {"image_id": "1564339630802535", "city_id": 5807, "city": "Imishli", "country": "Azerbaijan", "lat": 39.87095, "lon": 48.05995}, {"image_id": "1575946463355043", "city_id": 8117, "city": "Ultramort", "country": "Spain", "lat": 42.0364, "lon": 3.03455}, {"image_id": "1386474295070761", "city_id": 3601, "city": "Howard", "country": "United States", "lat": 44.01081, "lon": -97.52674}, {"image_id": "3657711044335400", "city_id": 1282, "city": "Negrile\u0219ti", "country": "Romania", "lat": 45.93697, "lon": 26.70635}, {"image_id": "1374671133055333", "city_id": 7357, "city": "Aulesti", "country": "Spain", "lat": 43.3, "lon": -2.56667}, {"image_id": "1359781051089018", "city_id": 7398, "city": "Ranua", "country": "Finland", "lat": 65.91667, "lon": 26.53333}, {"image_id": "1667651463435778", "city_id": 3413, "city": "Seen (Kreis 3) / B\u00fcelwiesen", "country": "Switzerland", "lat": 47.48446, "lon": 8.76517}, {"image_id": "1361332848071070", "city_id": 7833, "city": "Pr\u00e9veza", "country": "Greece", "lat": 38.95617, "lon": 20.7505}, {"image_id": "3070375789892758", "city_id": 8986, "city": "Willow Springs", "country": "United States", "lat": 36.99228, "lon": -91.96987}, {"image_id": "1433043197060184", "city_id": 457, "city": "Wellford", "country": "United States", "lat": 34.95095, "lon": -82.10594}, {"image_id": "1392164838167060", "city_id": 8376, "city": "Prinsenbeek", "country": "Netherlands", "lat": 51.59833, "lon": 4.7125}, {"image_id": "3384914445146942", "city_id": 5721, "city": "Thalwil / Dorfkern", "country": "Switzerland", "lat": 47.29047, "lon": 8.56633}, {"image_id": "1500459820302107", "city_id": 2463, "city": "Monterosso Grana", "country": "Italy", "lat": 44.40823, "lon": 7.32293}, {"image_id": "1358787771438347", "city_id": 487, "city": "Poteet", "country": "United States", "lat": 29.04052, "lon": -98.56807}, {"image_id": "3952703071488223", "city_id": 1706, "city": "San Pedro Apatlaco", "country": "Mexico", "lat": 18.79306, "lon": -98.95972}, {"image_id": "3141359319507248", "city_id": 2985, "city": "Cerro Cor\u00e1", "country": "Brazil", "lat": -6.04556, "lon": -36.34583}, {"image_id": "1425685427787311", "city_id": 4935, "city": "Ruardean", "country": "United Kingdom", "lat": 51.85501, "lon": -2.55054}, {"image_id": "1362544497878523", "city_id": 3935, "city": "Biantang", "country": "China", "lat": 34.42325, "lon": 117.64541}, {"image_id": "3312127805686530", "city_id": 8491, "city": "Norte\u00f1o", "country": "Panama", "lat": 9.00308, "lon": -82.31476}, {"image_id": "1370842310054567", "city_id": 2340, "city": "Istrana", "country": "Italy", "lat": 45.67691, "lon": 12.10119}, {"image_id": "1394929057753285", "city_id": 9887, "city": "Ayyelet HaSha\u1e96ar", "country": "Israel", "lat": 33.02224, "lon": 35.57716}, {"image_id": "1400684787260473", "city_id": 531, "city": "Metamora", "country": "United States", "lat": 40.79059, "lon": -89.36064}, {"image_id": "1354620691597995", "city_id": 902, "city": "Krasnoyilsk", "country": "Ukraine", "lat": 48.01865, "lon": 25.56004}, {"image_id": "1399802623746322", "city_id": 2299, "city": "Palata", "country": "Italy", "lat": 41.8879, "lon": 14.78778}, {"image_id": "1374487986343622", "city_id": 7891, "city": "Forges-les-Bains", "country": "France", "lat": 48.62942, "lon": 2.10264}, {"image_id": "1648231772217795", "city_id": 1987, "city": "Westmaas", "country": "Netherlands", "lat": 51.78667, "lon": 4.475}, {"image_id": "1366002887379678", "city_id": 5652, "city": "Trois-Rivi\u00e8res", "country": "Canada", "lat": 46.34515, "lon": -72.5477}, {"image_id": "1513873962521282", "city_id": 3257, "city": "Koo-Wee-Rup", "country": "Australia", "lat": -38.19941, "lon": 145.49081}, {"image_id": "1357142534667525", "city_id": 2686, "city": "Elelim", "country": "Indonesia", "lat": -3.759, "lon": 139.7075}, {"image_id": "1433048190564629", "city_id": 8734, "city": "Lagunillas", "country": "Venezuela, Bolivarian Rep. of", "lat": 10.13008, "lon": -71.25946}, {"image_id": "2092091014303953", "city_id": 4862, "city": "Hinckley", "country": "United Kingdom", "lat": 52.5389, "lon": -1.37613}, {"image_id": "1493216274867093", "city_id": 2611, "city": "Balatonf\u00f6ldv\u00e1r", "country": "Hungary", "lat": 46.85255, "lon": 17.88123}, {"image_id": "1415420368806798", "city_id": 1697, "city": "Cacahuatal", "country": "Mexico", "lat": 18.83098, "lon": -96.84192}, {"image_id": "1367769953609048", "city_id": 3432, "city": "Ashtonfield", "country": "Australia", "lat": -32.77331, "lon": 151.60583}, {"image_id": "1393756894323004", "city_id": 7833, "city": "Pr\u00e9veza", "country": "Greece", "lat": 38.95617, "lon": 20.7505}, {"image_id": "1354915545464499", "city_id": 9868, "city": "Derrybeg", "country": "Ireland", "lat": 55.08333, "lon": -8.28944}, {"image_id": "1461992554132198", "city_id": 1527, "city": "Nuwara Eliya", "country": "Sri Lanka", "lat": 6.97078, "lon": 80.78286}, {"image_id": "1360146894793501", "city_id": 7617, "city": "Amb\u00e9rieu-en-Bugey", "country": "France", "lat": 45.95932, "lon": 5.3516}, {"image_id": "1404940747078775", "city_id": 2971, "city": "Ubajara", "country": "Brazil", "lat": -3.85444, "lon": -40.92111}, {"image_id": "1352251738479831", "city_id": 8678, "city": "Kailua", "country": "United States", "lat": 21.40241, "lon": -157.74054}, {"image_id": "1575727839934341", "city_id": 3809, "city": "Ganyesa", "country": "South Africa", "lat": -26.59613, "lon": 24.17612}, {"image_id": "2700213573613482", "city_id": 9256, "city": "Vanambouani", "country": "Comoros", "lat": -11.61139, "lon": 43.25306}, {"image_id": "1457123397959401", "city_id": 6311, "city": "Babatorun", "country": "Turkey", "lat": 36.07743, "lon": 36.29051}, {"image_id": "1463188077576733", "city_id": 919, "city": "Aleksandrovka", "country": "Ukraine", "lat": 45.57654, "lon": 34.09947}, {"image_id": "1353646881686614", "city_id": 4586, "city": "Parola", "country": "Finland", "lat": 61.04624, "lon": 24.35463}, {"image_id": "1530710511083235", "city_id": 4966, "city": "Schimat\u00e1ri", "country": "Greece", "lat": 38.35, "lon": 23.58333}, {"image_id": "1487092785324277", "city_id": 7423, "city": "Villevocance", "country": "France", "lat": 45.22481, "lon": 4.58827}, {"image_id": "7070394362976112", "city_id": 2166, "city": "Chacapampa", "country": "Peru", "lat": -12.34461, "lon": -75.24744}, {"image_id": "1360821268227390", "city_id": 3895, "city": "Nanyang", "country": "China", "lat": 32.99472, "lon": 112.53278}, {"image_id": "1770376600453900", "city_id": 9960, "city": "Sharbaqty", "country": "Kazakhstan", "lat": 52.49087, "lon": 78.15556}, {"image_id": "1355094751531040", "city_id": 9588, "city": "Bernate Ticino", "country": "Italy", "lat": 45.47873, "lon": 8.81834}, {"image_id": "1485123755642569", "city_id": 621, "city": "Great Neck Gardens", "country": "United States", "lat": 40.79722, "lon": -73.72389}, {"image_id": "1415767855443980", "city_id": 1858, "city": "La Presa", "country": "Mexico", "lat": 22.34358, "lon": -105.3935}, {"image_id": "2195376527266013", "city_id": 5242, "city": "Antonovo", "country": "Bulgaria", "lat": 43.15022, "lon": 26.16032}, {"image_id": "1507685179737863", "city_id": 2721, "city": "Yanam", "country": "India", "lat": 16.73308, "lon": 82.21364}, {"image_id": "3605882316304495", "city_id": 3919, "city": "Yutai", "country": "China", "lat": 35.00337, "lon": 116.64503}, {"image_id": "1917329332048767", "city_id": 7568, "city": "Louvie-Juzon", "country": "France", "lat": 43.08646, "lon": -0.41928}, {"image_id": "1362120094462033", "city_id": 66, "city": "Polillo", "country": "Philippines", "lat": 14.71699, "lon": 121.94889}, {"image_id": "1355094751531040", "city_id": 4919, "city": "Ashby-de-la-Zouch", "country": "United Kingdom", "lat": 52.74632, "lon": -1.4732}, {"image_id": "1373269630172277", "city_id": 9625, "city": "Monticelli Brusati", "country": "Italy", "lat": 45.63478, "lon": 10.10026}, {"image_id": "1360146894793501", "city_id": 1998, "city": "Spierdijk", "country": "Netherlands", "lat": 52.65083, "lon": 4.94306}, {"image_id": "1522004435087511", "city_id": 1432, "city": "Kubey", "country": "Ukraine", "lat": 45.79131, "lon": 28.74455}, {"image_id": "1449773138957055", "city_id": 6205, "city": "Ahuachap\u00e1n", "country": "El Salvador", "lat": 13.92139, "lon": -89.845}, {"image_id": "1440277646313239", "city_id": 7968, "city": "Hlu\u010d\u00edn", "country": "Czech Republic", "lat": 49.89795, "lon": 18.19196}, {"image_id": "1391163914736299", "city_id": 7775, "city": "Bournemouth", "country": "United Kingdom", "lat": 50.72048, "lon": -1.8795}, {"image_id": "3020624018255144", "city_id": 9714, "city": "Tanuma", "country": "Japan", "lat": 36.36667, "lon": 139.58333}, {"image_id": "1487092785324277", "city_id": 9455, "city": "San Marco Evangelista", "country": "Italy", "lat": 41.03702, "lon": 14.33979}, {"image_id": "1491688091486951", "city_id": 3139, "city": "General Pinedo", "country": "Argentina", "lat": -27.31667, "lon": -61.28333}, {"image_id": "1361041361137666", "city_id": 7114, "city": "Mespelbrunn", "country": "Germany", "lat": 49.91444, "lon": 9.29194}, {"image_id": "1614906485691268", "city_id": 7006, "city": "Lambsheim", "country": "Germany", "lat": 49.51361, "lon": 8.28778}, {"image_id": "4492316857482901", "city_id": 9731, "city": "Kai Tsui Court", "country": "Hong Kong, China", "lat": 22.26158, "lon": 114.25105}, {"image_id": "1366561557575588", "city_id": 548, "city": "Erving", "country": "United States", "lat": 42.60009, "lon": -72.39814}, {"image_id": "1366383183739465", "city_id": 7480, "city": "Saint-Jean-des-Baisants", "country": "France", "lat": 49.09371, "lon": -0.97289}, {"image_id": "1355128738343682", "city_id": 2688, "city": "Patipi Pasir", "country": "Indonesia", "lat": -2.71212, "lon": 132.12756}, {"image_id": "1447767025784502", "city_id": 1768, "city": "Turcio Segunda Secci\u00f3n", "country": "Mexico", "lat": 19.36527, "lon": -99.96009}, {"image_id": "1368556327337700", "city_id": 3306, "city": "North Ward", "country": "Australia", "lat": -19.24994, "lon": 146.81477}, {"image_id": "1412828719387637", "city_id": 9302, "city": "La Ascensi\u00f3n", "country": "Mexico", "lat": 24.32392, "lon": -99.9141}, {"image_id": "1432004657533543", "city_id": 8925, "city": "Waterloo", "country": "United States", "lat": 42.90479, "lon": -76.86274}, {"image_id": "1466357867037421", "city_id": 1406, "city": "Lakeside Park", "country": "United States", "lat": 39.03562, "lon": -84.56911}, {"image_id": "1384363921931595", "city_id": 9128, "city": "Roanoke", "country": "United States", "lat": 37.27097, "lon": -79.94143}, {"image_id": "1493216274867093", "city_id": 6166, "city": "Senovo", "country": "Slovenia", "lat": 46.02361, "lon": 15.47694}, {"image_id": "2585296388317524", "city_id": 7327, "city": "Collado Mediano", "country": "Spain", "lat": 40.69326, "lon": -4.0228}, {"image_id": "1361149254296475", "city_id": 4594, "city": "Keuruu", "country": "Finland", "lat": 62.26667, "lon": 24.7}, {"image_id": "1404865177087814", "city_id": 3502, "city": "Kaf\u00e9gu\u00e9", "country": "C\u00f4te d'Ivoire", "lat": 8.66534, "lon": -6.15795}, {"image_id": "1470240769979811", "city_id": 2727, "city": "Vadakku Valliy\u016br", "country": "India", "lat": 8.38286, "lon": 77.61221}, {"image_id": "1354288448520452", "city_id": 4900, "city": "Chard", "country": "United Kingdom", "lat": 50.8727, "lon": -2.96597}, {"image_id": "2092091014303953", "city_id": 7657, "city": "Stoke Prior", "country": "United Kingdom", "lat": 52.29978, "lon": -2.08034}, {"image_id": "1511345336249661", "city_id": 3816, "city": "Carnarvon", "country": "South Africa", "lat": -30.96827, "lon": 22.13303}, {"image_id": "1364064744370094", "city_id": 4557, "city": "Alarilla", "country": "Spain", "lat": 40.84711, "lon": -3.1031}, {"image_id": "1375286293066300", "city_id": 1678, "city": "Huejotzingo", "country": "Mexico", "lat": 19.15892, "lon": -98.40824}, {"image_id": "1565824943893777", "city_id": 387, "city": "Fruitland", "country": "United States", "lat": 38.32206, "lon": -75.6202}, {"image_id": "1361373521461481", "city_id": 9475, "city": "Prato", "country": "Italy", "lat": 43.8805, "lon": 11.09699}, {"image_id": "1468833754030977", "city_id": 6704, "city": "Simone\u015fti", "country": "Romania", "lat": 46.33333, "lon": 25.1}, {"image_id": "1448187468896533", "city_id": 4457, "city": "Montehermoso", "country": "Spain", "lat": 40.08796, "lon": -6.34984}, {"image_id": "2893862644187294", "city_id": 3572, "city": "Ouarhama", "country": "C\u00f4te d'Ivoire", "lat": 7.83333, "lon": -6.7}, {"image_id": "1353949678528040", "city_id": 4263, "city": "Altena", "country": "Germany", "lat": 51.29472, "lon": 7.67337}, {"image_id": "5202670863123141", "city_id": 4629, "city": "Tonnay-Charente", "country": "France", "lat": 45.94395, "lon": -0.89193}, {"image_id": "2578598242446796", "city_id": 4395, "city": "Berrocal", "country": "Spain", "lat": 37.60863, "lon": -6.54147}, {"image_id": "1352787072311936", "city_id": 2052, "city": "Stj\u00f8rdalshalsen", "country": "Norway", "lat": 63.4681, "lon": 10.92618}, {"image_id": "1391163914736299", "city_id": 2194, "city": "Villefranche", "country": "Italy", "lat": 45.74064, "lon": 7.41598}, {"image_id": "1399802623746322", "city_id": 7440, "city": "Tr\u00e9mery", "country": "France", "lat": 49.2461, "lon": 6.22369}, {"image_id": "1354705148444092", "city_id": 2151, "city": "Yarabamba", "country": "Peru", "lat": -16.54808, "lon": -71.47754}, {"image_id": "2180158218843721", "city_id": 7621, "city": "Ableiges", "country": "France", "lat": 49.08932, "lon": 1.98154}, {"image_id": "1917329332048767", "city_id": 7219, "city": "Corral de Almaguer", "country": "Spain", "lat": 39.75987, "lon": -3.16452}, {"image_id": "1907698526279663", "city_id": 248, "city": "Bolim\u00f3w", "country": "Poland", "lat": 52.07671, "lon": 20.16352}, {"image_id": "1360421921011460", "city_id": 7531, "city": "Orli\u00e9nas", "country": "France", "lat": 45.65886, "lon": 4.71832}, {"image_id": "3905621432867052", "city_id": 3547, "city": "Akroufra", "country": "C\u00f4te d'Ivoire", "lat": 6.33965, "lon": -5.49123}, {"image_id": "1638776793557068", "city_id": 8001, "city": "Wachtberg", "country": "Germany", "lat": 50.63333, "lon": 7.1}, {"image_id": "3611853405591409", "city_id": 5018, "city": "Herbeys", "country": "France", "lat": 45.14012, "lon": 5.79289}, {"image_id": "1674874826233363", "city_id": 2912, "city": "Naze", "country": "Japan", "lat": 28.36667, "lon": 129.48333}, {"image_id": "1578178336058621", "city_id": 9103, "city": "La Paloma", "country": "United States", "lat": 26.04591, "lon": -97.66749}, {"image_id": "1399236117142004", "city_id": 4092, "city": "Oberreichenbach", "country": "Germany", "lat": 49.58946, "lon": 10.76892}, {"image_id": "1354620691597995", "city_id": 790, "city": "Sel\u00e7uk", "country": "Turkey", "lat": 37.95137, "lon": 27.36849}, {"image_id": "1517877729120689", "city_id": 2486, "city": "Denice", "country": "Italy", "lat": 44.59884, "lon": 8.33315}, {"image_id": "1437138337227971", "city_id": 8091, "city": "Bamo", "country": "C\u00f4te d'Ivoire", "lat": 5.80501, "lon": -5.96597}, {"image_id": "1361889101262674", "city_id": 2310, "city": "Morbegno", "country": "Italy", "lat": 46.1372, "lon": 9.57415}, {"image_id": "1383337902062365", "city_id": 8001, "city": "Wachtberg", "country": "Germany", "lat": 50.63333, "lon": 7.1}, {"image_id": "1454588905147770", "city_id": 4956, "city": "Kanifing", "country": "Gambia", "lat": 13.44639, "lon": -16.67444}, {"image_id": "4156524267769343", "city_id": 1031, "city": "Yaroslavskaya", "country": "Russian Federation", "lat": 44.61056, "lon": 40.46417}, {"image_id": "1479847308855451", "city_id": 8624, "city": "Hobbs", "country": "United States", "lat": 32.70261, "lon": -103.13604}, {"image_id": "1487092785324277", "city_id": 1991, "city": "Vlagtwedde", "country": "Netherlands", "lat": 53.0275, "lon": 7.10833}, {"image_id": "1369157057156766", "city_id": 2825, "city": "Avanigadda", "country": "India", "lat": 16.02148, "lon": 80.91808}, {"image_id": "2980774722222058", "city_id": 3475, "city": "Souvret", "country": "Belgium", "lat": 50.4486, "lon": 4.34569}, {"image_id": "1369782847035771", "city_id": 2708, "city": "Kokhav Michael Sobell", "country": "Israel", "lat": 31.62804, "lon": 34.66904}, {"image_id": "7708280259280801", "city_id": 2110, "city": "Oc\u00fa", "country": "Panama", "lat": 7.94525, "lon": -80.7773}, {"image_id": "1393832374579809", "city_id": 6001, "city": "Nenjiang", "country": "China", "lat": 49.17405, "lon": 125.21967}, {"image_id": "1479862002906938", "city_id": 3471, "city": "Torhout", "country": "Belgium", "lat": 51.0656, "lon": 3.10085}, {"image_id": "1417161372547099", "city_id": 5679, "city": "Loudima", "country": "Congo", "lat": -4.11616, "lon": 13.06755}, {"image_id": "3730808463697396", "city_id": 6569, "city": "Novokubansk", "country": "Russian Federation", "lat": 45.117, "lon": 41.0267}, {"image_id": "1386393646093402", "city_id": 837, "city": "\u0130kizdere", "country": "Turkey", "lat": 40.77484, "lon": 40.55227}, {"image_id": "3059788387585799", "city_id": 4859, "city": "Hyde", "country": "United Kingdom", "lat": 53.45131, "lon": -2.07943}, {"image_id": "1440577563368879", "city_id": 5325, "city": "Tamasane", "country": "Botswana", "lat": -22.4184, "lon": 27.40127}, {"image_id": "6045992752115059", "city_id": 3934, "city": "Bianzhuang", "country": "China", "lat": 34.84861, "lon": 118.04472}, {"image_id": "1658480687677530", "city_id": 7289, "city": "Mandayona", "country": "Spain", "lat": 40.9561, "lon": -2.75021}, {"image_id": "1412323802464510", "city_id": 1304, "city": "Goruna", "country": "Romania", "lat": 45.08696, "lon": 25.94202}, {"image_id": "1380501429459607", "city_id": 8663, "city": "Fox Island", "country": "United States", "lat": 47.25149, "lon": -122.62902}, {"image_id": "1374995366520556", "city_id": 7088, "city": "B\u00f6brach", "country": "Germany", "lat": 48.93322, "lon": 12.88304}, {"image_id": "1390572418483968", "city_id": 9045, "city": "Bethel Acres", "country": "United States", "lat": 35.30868, "lon": -97.02558}, {"image_id": "1352355948976180", "city_id": 4883, "city": "Eccleshall", "country": "United Kingdom", "lat": 52.85789, "lon": -2.24971}, {"image_id": "1690818161433829", "city_id": 4235, "city": "Brehna", "country": "Germany", "lat": 51.5579, "lon": 12.21276}, {"image_id": "2958255577747313", "city_id": 4388, "city": "Colmenar", "country": "Spain", "lat": 36.90519, "lon": -4.33557}, {"image_id": "1597178777699345", "city_id": 5735, "city": "Z\u00e9m\u00e9n\u00e9fla", "country": "C\u00f4te d'Ivoire", "lat": 6.54333, "lon": -5.78906}, {"image_id": "2984149028531531", "city_id": 7815, "city": "Brockley", "country": "United Kingdom", "lat": 51.46369, "lon": -0.03652}, {"image_id": "1873923102805095", "city_id": 2756, "city": "N\u0101sriganj", "country": "India", "lat": 25.0514, "lon": 84.32839}, {"image_id": "1421988018486497", "city_id": 4007, "city": "Soplaviento", "country": "Colombia", "lat": 10.39306, "lon": -75.14083}, {"image_id": "1398739653947134", "city_id": 5733, "city": "Zonneu", "country": "C\u00f4te d'Ivoire", "lat": 7.17144, "lon": -8.06675}, {"image_id": "1363875850938164", "city_id": 5648, "city": "Saskatoon", "country": "Canada", "lat": 52.13238, "lon": -106.66892}, {"image_id": "1360749437636345", "city_id": 3446, "city": "Ravno", "country": "Bosnia and Herzegovina", "lat": 42.88741, "lon": 17.96555}, {"image_id": "1352988441742856", "city_id": 9574, "city": "Campolongo al Torre", "country": "Italy", "lat": 45.86389, "lon": 13.39667}, {"image_id": "1413349265688623", "city_id": 8821, "city": "North Bath", "country": "United States", "lat": 43.9348, "lon": -69.81588}, {"image_id": "2092091014303953", "city_id": 7776, "city": "Boston Spa", "country": "United Kingdom", "lat": 53.90419, "lon": -1.34523}, {"image_id": "1529991624484263", "city_id": 2974, "city": "S\u00e3o Bernardo", "country": "Brazil", "lat": -3.36139, "lon": -42.41778}, {"image_id": "1404865177087814", "city_id": 5753, "city": "Ouron\u00e9", "country": "C\u00f4te d'Ivoire", "lat": 7.58016, "lon": -7.43025}, {"image_id": "1402241373999708", "city_id": 6514, "city": "Lansing", "country": "United States", "lat": 39.24861, "lon": -94.90024}, {"image_id": "1363637605036981", "city_id": 9017, "city": "North Wilkesboro", "country": "United States", "lat": 36.15847, "lon": -81.14758}, {"image_id": "1357724404606106", "city_id": 1049, "city": "Ul\u2019yanovka", "country": "Russian Federation", "lat": 59.63944, "lon": 30.76472}, {"image_id": "1356072711982988", "city_id": 7294, "city": "Linyola", "country": "Spain", "lat": 41.7, "lon": 0.91667}, {"image_id": "1740486386426530", "city_id": 6136, "city": "Osoblaha", "country": "Czech Republic", "lat": 50.27517, "lon": 17.71523}, {"image_id": "1470240769979811", "city_id": 2807, "city": "Chittaranjan", "country": "India", "lat": 23.85681, "lon": 86.90324}, {"image_id": "2912061399005818", "city_id": 5895, "city": "Zhaodun", "country": "China", "lat": 34.3027, "lon": 117.85699}, {"image_id": "1364252117614096", "city_id": 8627, "city": "Milan", "country": "United States", "lat": 35.16976, "lon": -107.89089}, {"image_id": "6112895378811168", "city_id": 2716, "city": "Caesarea", "country": "Israel", "lat": 32.51888, "lon": 34.90459}, {"image_id": "1391192254592576", "city_id": 7935, "city": "Bouc-Bel-Air", "country": "France", "lat": 43.45217, "lon": 5.413}, {"image_id": "1380495526078375", "city_id": 7160, "city": "Nulti", "country": "Ecuador", "lat": -2.91667, "lon": -78.85}, {"image_id": "1690818161433829", "city_id": 9494, "city": "Pagnona", "country": "Italy", "lat": 46.05969, "lon": 9.40274}, {"image_id": "1362201697655147", "city_id": 8498, "city": "Santiago de Cao", "country": "Peru", "lat": -7.95889, "lon": -79.23917}, {"image_id": "4097336260334297", "city_id": 6770, "city": "Dr\u0103goie\u0219ti", "country": "Romania", "lat": 47.55, "lon": 26.08333}, {"image_id": "1513017249046726", "city_id": 3223, "city": "Mannum", "country": "Australia", "lat": -34.91529, "lon": 139.30325}, {"image_id": "1376903256467658", "city_id": 9061, "city": "Dalzell", "country": "United States", "lat": 34.01682, "lon": -80.43008}, {"image_id": "2953354801552126", "city_id": 3424, "city": "Trohempleu", "country": "C\u00f4te d'Ivoire", "lat": 7.23303, "lon": -8.18712}, {"image_id": "1354242644951498", "city_id": 1115, "city": "Kresty", "country": "Russian Federation", "lat": 56.77595, "lon": 28.09083}, {"image_id": "1354766222166662", "city_id": 2535, "city": "Fortune Estate", "country": "Hong Kong, China", "lat": 22.33556, "lon": 114.15373}, {"image_id": "1354295348630946", "city_id": 6226, "city": "Chae Hom", "country": "Thailand", "lat": 18.71267, "lon": 99.55758}, {"image_id": "1375309553004447", "city_id": 4830, "city": "Ramsbury", "country": "United Kingdom", "lat": 51.44373, "lon": -1.60257}, {"image_id": "1418577138647684", "city_id": 2672, "city": "Panimbang", "country": "Indonesia", "lat": -6.4943, "lon": 105.7961}, {"image_id": "2150162342016984", "city_id": 7976, "city": "Vysehrad", "country": "Czech Republic", "lat": 50.06509, "lon": 14.41711}, {"image_id": "1415151946067165", "city_id": 484, "city": "Palo Pinto", "country": "United States", "lat": 32.76735, "lon": -98.29866}, {"image_id": "1374995366520556", "city_id": 5450, "city": "Wilfleinsdorf", "country": "Austria", "lat": 48.01667, "lon": 16.71667}, {"image_id": "1398141521577431", "city_id": 8161, "city": "Lagunillas", "country": "Mexico", "lat": 20.45876, "lon": -100.295}, {"image_id": "4121674121245052", "city_id": 9561, "city": "Castelnuovo di Conza", "country": "Italy", "lat": 40.82062, "lon": 15.31875}, {"image_id": "1710081849521463", "city_id": 8487, "city": "Cascabel", "country": "Panama", "lat": 8.52723, "lon": -81.87593}, {"image_id": "7547984468595065", "city_id": 6230, "city": "Tha Wang Pha", "country": "Thailand", "lat": 19.12189, "lon": 100.81106}, {"image_id": "3384914445146942", "city_id": 2890, "city": "Codogna-Cardano", "country": "Italy", "lat": 46.02769, "lon": 9.20992}, {"image_id": "1479862002906938", "city_id": 5848, "city": "Leopoldsburg", "country": "Belgium", "lat": 51.11667, "lon": 5.25}, {"image_id": "1738173880251878", "city_id": 3121, "city": "Salto", "country": "Argentina", "lat": -34.29175, "lon": -60.2545}, {"image_id": "1351993625304913", "city_id": 8579, "city": "Prescott Valley", "country": "United States", "lat": 34.61002, "lon": -112.31572}, {"image_id": "1352988441742856", "city_id": 5507, "city": "Bad H\u00e4ring", "country": "Austria", "lat": 47.51071, "lon": 12.11912}, {"image_id": "2626369824327156", "city_id": 2074, "city": "Inaruwa", "country": "Nepal", "lat": 26.60675, "lon": 87.1478}, {"image_id": "1563522100773492", "city_id": 6894, "city": "Malusac", "country": "Philippines", "lat": 14.85842, "lon": 120.6212}, {"image_id": "2190042494664853", "city_id": 1183, "city": "Manzherok", "country": "Russian Federation", "lat": 51.83028, "lon": 85.775}, {"image_id": "1432004657533543", "city_id": 3358, "city": "Mount Pleasant West", "country": "Canada", "lat": 43.70444, "lon": -79.39336}, {"image_id": "2285150761669739", "city_id": 8321, "city": "Ogidi", "country": "Nigeria", "lat": 6.15209, "lon": 6.86343}, {"image_id": "1448292382190475", "city_id": 1182, "city": "Novyy Urengoy", "country": "Russian Federation", "lat": 66.08333, "lon": 76.63333}, {"image_id": "1493547098260264", "city_id": 4078, "city": "Penzing", "country": "Germany", "lat": 48.07481, "lon": 10.92745}, {"image_id": "1545942472660763", "city_id": 92, "city": "Maquiapo", "country": "Philippines", "lat": 14.98561, "lon": 120.55855}, {"image_id": "2703846413088719", "city_id": 3825, "city": "Vaalbank", "country": "South Africa", "lat": -25.15226, "lon": 28.85563}, {"image_id": "1433941253609506", "city_id": 1435, "city": "Al Hasaheisa", "country": "Sudan, The Republic of", "lat": 14.75264, "lon": 33.29836}, {"image_id": "3384914445146942", "city_id": 7100, "city": "Augsburg", "country": "Germany", "lat": 48.37154, "lon": 10.89851}, {"image_id": "1533991274123982", "city_id": 4933, "city": "Whiston", "country": "United Kingdom", "lat": 53.41997, "lon": -2.78907}, {"image_id": "3245174829104489", "city_id": 7653, "city": "Templecombe", "country": "United Kingdom", "lat": 50.99908, "lon": -2.41578}, {"image_id": "1395823407952628", "city_id": 1170, "city": "Yemanzhelinka", "country": "Russian Federation", "lat": 54.801, "lon": 61.2989}, {"image_id": "1396540474034957", "city_id": 3983, "city": "Shuangfu", "country": "China", "lat": 29.41359, "lon": 106.27014}, {"image_id": "3799140717010896", "city_id": 1231, "city": "Toflea", "country": "Romania", "lat": 46.06372, "lon": 27.33411}, {"image_id": "1400408574181656", "city_id": 480, "city": "Little Elm", "country": "United States", "lat": 33.16262, "lon": -96.93751}, {"image_id": "1840375706314945", "city_id": 7559, "city": "Marcq-en-Bar\u0153ul", "country": "France", "lat": 50.66667, "lon": 3.08333}, {"image_id": "1359649468033535", "city_id": 4437, "city": "Porto", "country": "Spain", "lat": 42.16737, "lon": -6.89934}, {"image_id": "1362388100906338", "city_id": 9956, "city": "J\u012bran", "country": "India", "lat": 24.30871, "lon": 74.89087}, {"image_id": "3384914445146942", "city_id": 7944, "city": "Bergheim", "country": "France", "lat": 48.2054, "lon": 7.36299}, {"image_id": "2871195649680546", "city_id": 8948, "city": "Hummelstown", "country": "United States", "lat": 40.26537, "lon": -76.7083}, {"image_id": "1423830854961385", "city_id": 1988, "city": "Werkendam", "country": "Netherlands", "lat": 51.81, "lon": 4.89444}, {"image_id": "1374487986343622", "city_id": 7030, "city": "Hetzles", "country": "Germany", "lat": 49.63333, "lon": 11.13333}, {"image_id": "1373964389648071", "city_id": 4838, "city": "Okehampton", "country": "United Kingdom", "lat": 50.73841, "lon": -4.0016}, {"image_id": "1354620691597995", "city_id": 6537, "city": "Unecha", "country": "Russian Federation", "lat": 52.84294, "lon": 32.68761}, {"image_id": "1397797327264594", "city_id": 5742, "city": "Tiagba", "country": "C\u00f4te d'Ivoire", "lat": 5.26028, "lon": -4.72333}, {"image_id": "1354620691597995", "city_id": 6816, "city": "Aiton", "country": "Romania", "lat": 46.68333, "lon": 23.73333}, {"image_id": "1369975584390760", "city_id": 5035, "city": "Fontaine-le-Bourg", "country": "France", "lat": 49.56451, "lon": 1.16391}, {"image_id": "1389503712451181", "city_id": 7598, "city": "Lamagist\u00e8re", "country": "France", "lat": 44.12498, "lon": 0.82353}, {"image_id": "1478825276054882", "city_id": 8326, "city": "Langtang", "country": "Nigeria", "lat": 9.14164, "lon": 9.79101}, {"image_id": "1376903256467658", "city_id": 613, "city": "Alfred", "country": "United States", "lat": 42.25424, "lon": -77.79055}, {"image_id": "1480115516113114", "city_id": 8315, "city": "Shendam", "country": "Nigeria", "lat": 8.87866, "lon": 9.53464}, {"image_id": "1364374267281064", "city_id": 5246, "city": "Tangui\u00e9ta", "country": "Benin", "lat": 10.62118, "lon": 1.26651}, {"image_id": "1361428817799819", "city_id": 2511, "city": "Monterusciello", "country": "Italy", "lat": 40.86874, "lon": 14.08276}, {"image_id": "1403418737093661", "city_id": 3622, "city": "Spencer", "country": "United States", "lat": 44.75774, "lon": -90.2968}, {"image_id": "1493216274867093", "city_id": 5486, "city": "Maria Rain", "country": "Austria", "lat": 46.55389, "lon": 14.29556}, {"image_id": "1479502916285674", "city_id": 2986, "city": "Capela", "country": "Brazil", "lat": -9.4075, "lon": -36.07361}, {"image_id": "1413226335747933", "city_id": 9074, "city": "Kenton", "country": "United States", "lat": 36.20229, "lon": -89.01229}, {"image_id": "1436324623373702", "city_id": 3900, "city": "Luoyang", "country": "China", "lat": 27.56139, "lon": 119.71139}, {"image_id": "1408132159684935", "city_id": 9547, "city": "Cologno al Serio", "country": "Italy", "lat": 45.57604, "lon": 9.70892}, {"image_id": "1354443168543245", "city_id": 721, "city": "S\u00e9dhiou", "country": "Senegal", "lat": 12.70806, "lon": -15.55694}, {"image_id": "1368697490180039", "city_id": 9279, "city": "Jalacingo", "country": "Mexico", "lat": 19.80333, "lon": -97.3083}, {"image_id": "1363184067519278", "city_id": 7548, "city": "Montady", "country": "France", "lat": 43.33539, "lon": 3.12725}, {"image_id": "1440277646313239", "city_id": 6135, "city": "Paskov", "country": "Czech Republic", "lat": 49.73179, "lon": 18.29037}, {"image_id": "1423817614650692", "city_id": 3154, "city": "Stra\u00df in Steiermark", "country": "Austria", "lat": 46.72722, "lon": 15.62444}, {"image_id": "1368201904126537", "city_id": 2549, "city": "La Playona", "country": "Honduras", "lat": 15.11803, "lon": -88.98197}, {"image_id": "1354288448520452", "city_id": 4551, "city": "Alcoroches", "country": "Spain", "lat": 40.62669, "lon": -1.74629}, {"image_id": "1432246950731452", "city_id": 9558, "city": "Castelsantangelo sul Nera", "country": "Italy", "lat": 42.89379, "lon": 13.15462}, {"image_id": "1458199584542259", "city_id": 1043, "city": "Vityazevo", "country": "Russian Federation", "lat": 45.0013, "lon": 37.28211}, {"image_id": "1398371243856504", "city_id": 5035, "city": "Fontaine-le-Bourg", "country": "France", "lat": 49.56451, "lon": 1.16391}, {"image_id": "1392164838167060", "city_id": 6128, "city": "Star\u00e9 K\u0159e\u010dany", "country": "Czech Republic", "lat": 50.95044, "lon": 14.49617}, {"image_id": "1516541569166506", "city_id": 1979, "city": "Rama", "country": "Nicaragua", "lat": 12.15965, "lon": -84.21952}, {"image_id": "3042356346047220", "city_id": 7314, "city": "Ferreras de Abajo", "country": "Spain", "lat": 41.89651, "lon": -6.07904}, {"image_id": "1361286857795702", "city_id": 582, "city": "Minneota", "country": "United States", "lat": 44.55885, "lon": -95.98559}, {"image_id": "1920158641787506", "city_id": 5645, "city": "Saint-F\u00e9lix-de-Valois", "country": "Canada", "lat": 46.16977, "lon": -73.42525}, {"image_id": "1375286293066300", "city_id": 8211, "city": "Aguas Blancas", "country": "Mexico", "lat": 17.03654, "lon": -100.063}, {"image_id": "1485162561822011", "city_id": 6504, "city": "Mound City", "country": "United States", "lat": 37.08533, "lon": -89.16257}, {"image_id": "2419451031565705", "city_id": 9304, "city": "Ahuatepec de Camino", "country": "Mexico", "lat": 19.04087, "lon": -97.43457}, {"image_id": "1359594971258467", "city_id": 371, "city": "V\u0103leni", "country": "Romania", "lat": 46.90291, "lon": 26.38945}, {"image_id": "3106496926232304", "city_id": 3797, "city": "Al Mad\u0101n", "country": "Yemen", "lat": 16.22413, "lon": 43.64383}, {"image_id": "1813170162490027", "city_id": 8954, "city": "Marysville", "country": "United States", "lat": 40.34259, "lon": -76.92997}, {"image_id": "2580264332140305", "city_id": 1968, "city": "Gada", "country": "Nigeria", "lat": 13.7543, "lon": 5.65723}, {"image_id": "1384668622171336", "city_id": 8611, "city": "Sun City", "country": "United States", "lat": 33.70919, "lon": -117.19726}, {"image_id": "5202670863123141", "city_id": 4442, "city": "Orist\u00e0", "country": "Spain", "lat": 41.93333, "lon": 2.06667}, {"image_id": "1388590835330408", "city_id": 5724, "city": "Dietikon / Hofacker", "country": "Switzerland", "lat": 47.39718, "lon": 8.41609}, {"image_id": "1384434852212696", "city_id": 3310, "city": "Wiley Park", "country": "Australia", "lat": -33.9242, "lon": 151.06737}, {"image_id": "3952703071488223", "city_id": 1835, "city": "El Lobo", "country": "Mexico", "lat": 20.72904, "lon": -100.20226}, {"image_id": "1353874991899335", "city_id": 4440, "city": "Paniza", "country": "Spain", "lat": 41.284, "lon": -1.21224}, {"image_id": "1504220397051983", "city_id": 8676, "city": "Mountain View", "country": "United States", "lat": 41.26884, "lon": -110.33988}, {"image_id": "1413092692382021", "city_id": 9950, "city": "Kishtw\u0101r", "country": "India", "lat": 33.31346, "lon": 75.76726}, {"image_id": "1358409687877601", "city_id": 9544, "city": "Cortandone", "country": "Italy", "lat": 44.95915, "lon": 8.05843}, {"image_id": "1662166874211651", "city_id": 4053, "city": "Vlachovo B\u0159ez\u00ed", "country": "Czech Republic", "lat": 49.08135, "lon": 13.95842}, {"image_id": "1375284379575120", "city_id": 8140, "city": "San Lucas Texcaltitl\u00e1n", "country": "Mexico", "lat": 19.30065, "lon": -100.17163}, {"image_id": "1438128453534133", "city_id": 8836, "city": "Ontonagon", "country": "United States", "lat": 46.87105, "lon": -89.31403}, {"image_id": "1425050701697060", "city_id": 3429, "city": "West Hobart", "country": "Australia", "lat": -42.87658, "lon": 147.30688}, {"image_id": "1362322631157772", "city_id": 8881, "city": "Robertsville", "country": "United States", "lat": 40.34622, "lon": -74.28792}, {"image_id": "2386022698255276", "city_id": 212, "city": "Wi\u015bniowa", "country": "Poland", "lat": 49.7878, "lon": 20.11502}, {"image_id": "1598171024338837", "city_id": 5006, "city": "La Chevroli\u00e8re", "country": "France", "lat": 47.09105, "lon": -1.61119}, {"image_id": "1376572153089420", "city_id": 1688, "city": "Dzit\u00e1s", "country": "Mexico", "lat": 20.84089, "lon": -88.52908}, {"image_id": "1378346792541938", "city_id": 6737, "city": "Negoi", "country": "Romania", "lat": 43.91396, "lon": 23.37288}, {"image_id": "1379344079396492", "city_id": 8971, "city": "Butler", "country": "United States", "lat": 38.25863, "lon": -94.33051}, {"image_id": "1446210966252872", "city_id": 7316, "city": "Espej\u00f3n", "country": "Spain", "lat": 41.83023, "lon": -3.25936}, {"image_id": "1597941910635885", "city_id": 9958, "city": "Turgen", "country": "Kazakhstan", "lat": 43.40056, "lon": 77.59333}, {"image_id": "1462799427588514", "city_id": 5173, "city": "Artannes-sur-Indre", "country": "France", "lat": 47.27451, "lon": 0.60036}, {"image_id": "1526443951574308", "city_id": 9395, "city": "Morgongiori", "country": "Italy", "lat": 39.7463, "lon": 8.77041}, {"image_id": "1353874991899335", "city_id": 2358, "city": "Gallicano nel Lazio", "country": "Italy", "lat": 41.86433, "lon": 12.83543}, {"image_id": "1480682882316877", "city_id": 4398, "city": "Baza", "country": "Spain", "lat": 37.49073, "lon": -2.77259}, {"image_id": "1614906485691268", "city_id": 4105, "city": "Niederdorf", "country": "Germany", "lat": 50.72623, "lon": 12.78587}, {"image_id": "1425118164520171", "city_id": 381, "city": "Chesapeake Beach", "country": "United States", "lat": 38.68623, "lon": -76.53468}, {"image_id": "1425932412141577", "city_id": 5658, "city": "Campbellton", "country": "Canada", "lat": 48.00751, "lon": -66.67272}, {"image_id": "1533991274123982", "city_id": 7545, "city": "Montigny-en-Gohelle", "country": "France", "lat": 50.4254, "lon": 2.93902}, {"image_id": "1380608225668350", "city_id": 1071, "city": "Rameshki", "country": "Russian Federation", "lat": 57.34382, "lon": 36.04429}, {"image_id": "1353130178751866", "city_id": 3845, "city": "Lautaro", "country": "Chile", "lat": -38.53066, "lon": -72.43652}, {"image_id": "1465119790662647", "city_id": 1049, "city": "Ul\u2019yanovka", "country": "Russian Federation", "lat": 59.63944, "lon": 30.76472}, {"image_id": "1415479842642487", "city_id": 3820, "city": "Mkukwini", "country": "South Africa", "lat": -31.97144, "lon": 27.43361}, {"image_id": "1352514345149179", "city_id": 9575, "city": "Camerata Cornello", "country": "Italy", "lat": 45.89956, "lon": 9.65569}, {"image_id": "1357507211773832", "city_id": 1081, "city": "Olenegorsk", "country": "Russian Federation", "lat": 68.1432, "lon": 33.25287}, {"image_id": "1889741651473471", "city_id": 8837, "city": "Portage", "country": "United States", "lat": 42.20115, "lon": -85.58}, {"image_id": "1775950006478536", "city_id": 8304, "city": "Karasburg", "country": "Namibia", "lat": -28.01658, "lon": 18.74797}, {"image_id": "1383409258724484", "city_id": 8867, "city": "Belmar", "country": "United States", "lat": 40.17845, "lon": -74.0218}, {"image_id": "1426120407720745", "city_id": 3444, "city": "\u0160turli\u0107", "country": "Bosnia and Herzegovina", "lat": 45.06389, "lon": 15.77806}, {"image_id": "1736333783221919", "city_id": 6850, "city": "Santa Maria", "country": "Philippines", "lat": 17.3665, "lon": 120.4808}, {"image_id": "1375284379575120", "city_id": 8242, "city": "Colonia Tulteca Teopan", "country": "Mexico", "lat": 19.56139, "lon": -98.84417}, {"image_id": "1915456662165202", "city_id": 949, "city": "East End", "country": "United States", "lat": 34.55065, "lon": -92.34099}, {"image_id": "1355094751531040", "city_id": 4053, "city": "Vlachovo B\u0159ez\u00ed", "country": "Czech Republic", "lat": 49.08135, "lon": 13.95842}, {"image_id": "1424625548046210", "city_id": 7633, "city": "Wimblington", "country": "United Kingdom", "lat": 52.50925, "lon": 0.08416}, {"image_id": "1379242169475298", "city_id": 7265, "city": "Pizarral", "country": "Spain", "lat": 40.6145, "lon": -5.65238}, {"image_id": "1358603411301912", "city_id": 177, "city": "Balud", "country": "Philippines", "lat": 10.1476, "lon": 123.6953}, {"image_id": "1428781880831484", "city_id": 3760, "city": "Boca de Uchire", "country": "Venezuela, Bolivarian Rep. of", "lat": 10.13191, "lon": -65.42236}, {"image_id": "1484910201889723", "city_id": 1693, "city": "Cocoyol", "country": "Mexico", "lat": 18.16448, "lon": -88.6908}, {"image_id": "7070394362976112", "city_id": 2147, "city": "Bambas", "country": "Peru", "lat": -8.6, "lon": -78.0}, {"image_id": "1395088368087958", "city_id": 5622, "city": "Parkinson", "country": "Australia", "lat": -27.6434, "lon": 153.02975}, {"image_id": "1409061013364004", "city_id": 8485, "city": "El Ejido", "country": "Panama", "lat": 7.91724, "lon": -80.382}, {"image_id": "1664357483974703", "city_id": 4234, "city": "Breitenbrunn", "country": "Germany", "lat": 48.13333, "lon": 10.4}, {"image_id": "1361310574563904", "city_id": 6866, "city": "Punta", "country": "Philippines", "lat": 8.98972, "lon": 125.34}, {"image_id": "1471314539872318", "city_id": 1548, "city": "Ar-Ra\u1e25a\u012bb\u0101t", "country": "Libyan Arab Jamahiriya", "lat": 31.84637, "lon": 11.8436}, {"image_id": "1413226335747933", "city_id": 9028, "city": "Brigantine", "country": "United States", "lat": 39.41012, "lon": -74.36459}, {"image_id": "1362355634383449", "city_id": 7340, "city": "Cabanes", "country": "Spain", "lat": 40.156, "lon": 0.04325}, {"image_id": "1362711874110827", "city_id": 4187, "city": "Geising", "country": "Germany", "lat": 50.75742, "lon": 13.79278}, {"image_id": "1418334298812155", "city_id": 1876, "city": "H\u00e9rcules", "country": "Mexico", "lat": 28.04306, "lon": -103.79111}, {"image_id": "1383337902062365", "city_id": 5154, "city": "Stamsried", "country": "Germany", "lat": 49.26755, "lon": 12.53051}, {"image_id": "1925065154346043", "city_id": 9750, "city": "Sesvete", "country": "Croatia", "lat": 45.83111, "lon": 16.11639}, {"image_id": "1838367556641623", "city_id": 5341, "city": "Binbrook", "country": "Canada", "lat": 43.12135, "lon": -79.81104}, {"image_id": "1705235483008395", "city_id": 1205, "city": "Tataurovo", "country": "Russian Federation", "lat": 52.14182, "lon": 107.44054}, {"image_id": "1538052649865474", "city_id": 4995, "city": "K\u00f3nitsa", "country": "Greece", "lat": 40.04861, "lon": 20.75667}, {"image_id": "1446210966252872", "city_id": 4566, "city": "L'Entregu/El Entrego", "country": "Spain", "lat": 43.28752, "lon": -5.638}, {"image_id": "1370842310054567", "city_id": 9441, "city": "Scarmagno", "country": "Italy", "lat": 45.38492, "lon": 7.8411}, {"image_id": "1480341722624189", "city_id": 6844, "city": "Taganak", "country": "Philippines", "lat": 6.07328, "lon": 118.31226}, {"image_id": "1448686489392615", "city_id": 6221, "city": "Pathio", "country": "Thailand", "lat": 10.70908, "lon": 99.3182}, {"image_id": "1394929057753285", "city_id": 9707, "city": "Ash Sh\u016bnah ash Sham\u0101l\u012byah", "country": "Jordan", "lat": 32.62023, "lon": 35.61451}, {"image_id": "2095381614221008", "city_id": 9213, "city": "Murayama", "country": "Japan", "lat": 38.46972, "lon": 140.41441}, {"image_id": "1426120407720745", "city_id": 709, "city": "Tlma\u010de", "country": "Slovakia", "lat": 48.28926, "lon": 18.53152}, {"image_id": "1355094751531040", "city_id": 8417, "city": "Beetsterzwaag", "country": "Netherlands", "lat": 53.05914, "lon": 6.07711}, {"image_id": "1357205988071379", "city_id": 9117, "city": "West Sharyland", "country": "United States", "lat": 26.27257, "lon": -98.32863}, {"image_id": "1374995366520556", "city_id": 5505, "city": "Haugschlag", "country": "Austria", "lat": 48.98333, "lon": 15.05}, {"image_id": "1412346572920550", "city_id": 8495, "city": "Tocache", "country": "Peru", "lat": -8.1877, "lon": -76.52046}, {"image_id": "1561530181445223", "city_id": 764, "city": "Na Noi", "country": "Thailand", "lat": 18.32639, "lon": 100.71417}, {"image_id": "1383337902062365", "city_id": 9433, "city": "Torre di Santa Maria", "country": "Italy", "lat": 46.23356, "lon": 9.85228}, {"image_id": "1929548250865071", "city_id": 547, "city": "East Douglas", "country": "United States", "lat": 42.07232, "lon": -71.7134}, {"image_id": "1360756864352712", "city_id": 3881, "city": "Taolin", "country": "China", "lat": 35.80006, "lon": 119.53395}, {"image_id": "1356156974777798", "city_id": 1740, "city": "San Isidro", "country": "Mexico", "lat": 15.74373, "lon": -93.35276}, {"image_id": "1410164816437265", "city_id": 7098, "city": "Bad Hersfeld", "country": "Germany", "lat": 50.87197, "lon": 9.70891}, {"image_id": "1352514345149179", "city_id": 9690, "city": "Colle Spina", "country": "Italy", "lat": 41.78205, "lon": 12.84723}, {"image_id": "1530425014466121", "city_id": 5769, "city": "Klimankro Nd\u00e9nou", "country": "C\u00f4te d'Ivoire", "lat": 7.50698, "lon": -4.56729}, {"image_id": "1465033390840644", "city_id": 9913, "city": "R\u0101jgarh", "country": "India", "lat": 28.64201, "lon": 75.38612}, {"image_id": "1437705263300290", "city_id": 5529, "city": "Mount Compass", "country": "Australia", "lat": -35.34685, "lon": 138.62032}, {"image_id": "2108960882780914", "city_id": 7834, "city": "Platari\u00e1", "country": "Greece", "lat": 39.45044, "lon": 20.27781}, {"image_id": "1408132159684935", "city_id": 4239, "city": "Blaufelden", "country": "Germany", "lat": 49.29778, "lon": 9.97389}, {"image_id": "1361135964242721", "city_id": 1085, "city": "Novorossiysk", "country": "Russian Federation", "lat": 44.72439, "lon": 37.76752}, {"image_id": "1381578948908104", "city_id": 5169, "city": "Bagn\u00e8res-de-Luchon", "country": "France", "lat": 42.79079, "lon": 0.59341}, {"image_id": "1437262880492029", "city_id": 9054, "city": "Sapulpa", "country": "United States", "lat": 35.9987, "lon": -96.11417}, {"image_id": "1447918612782833", "city_id": 6312, "city": "Alt\u0131nyayla", "country": "Turkey", "lat": 39.27249, "lon": 36.75098}, {"image_id": "3538893606347935", "city_id": 2818, "city": "Beg\u016bn", "country": "India", "lat": 24.98333, "lon": 75.0}, {"image_id": "1639875646624399", "city_id": 7993, "city": "Weisel", "country": "Germany", "lat": 50.11667, "lon": 7.8}, {"image_id": "1372678213100786", "city_id": 1069, "city": "Russkiy Kameshkir", "country": "Russian Federation", "lat": 52.85955, "lon": 46.08861}, {"image_id": "1362185608497926", "city_id": 3120, "city": "San Antonio de Lit\u00edn", "country": "Argentina", "lat": -32.21355, "lon": -62.63133}, {"image_id": "1373269630172277", "city_id": 2298, "city": "Pavone del Mella", "country": "Italy", "lat": 45.30147, "lon": 10.20984}, {"image_id": "1558261004977670", "city_id": 1976, "city": "Baap", "country": "Nigeria", "lat": 8.94321, "lon": 9.24126}, {"image_id": "1545942472660763", "city_id": 25, "city": "Tapon", "country": "Philippines", "lat": 10.0631, "lon": 123.4453}, {"image_id": "1363785770664016", "city_id": 1660, "city": "Panotla", "country": "Mexico", "lat": 19.31619, "lon": -98.27013}, {"image_id": "1411732656445566", "city_id": 9167, "city": "Lakewood Shores", "country": "United States", "lat": 41.2817, "lon": -88.14478}, {"image_id": "1404821363711456", "city_id": 546, "city": "Danvers", "country": "United States", "lat": 42.57509, "lon": -70.93005}, {"image_id": "1479101006814217", "city_id": 2215, "city": "Torrebelvicino", "country": "Italy", "lat": 45.71583, "lon": 11.31869}, {"image_id": "1428403911342035", "city_id": 5811, "city": "\u0160iroki Brijeg", "country": "Bosnia and Herzegovina", "lat": 43.3829, "lon": 17.59416}, {"image_id": "1399467224081151", "city_id": 5433, "city": "General Pico", "country": "Argentina", "lat": -35.6593, "lon": -63.75787}, {"image_id": "2888488691416064", "city_id": 4997, "city": "Diavat\u00e1", "country": "Greece", "lat": 40.68744, "lon": 22.85799}, {"image_id": "1487092785324277", "city_id": 2302, "city": "Ordona", "country": "Italy", "lat": 41.31501, "lon": 15.62832}, {"image_id": "1388691604851412", "city_id": 6791, "city": "Caraula", "country": "Romania", "lat": 44.18333, "lon": 23.25}, {"image_id": "1398441684091035", "city_id": 7264, "city": "Pozalmuro", "country": "Spain", "lat": 41.77449, "lon": -2.10215}, {"image_id": "1361912388094003", "city_id": 9882, "city": "Kafr Mi\u1e63r", "country": "Israel", "lat": 32.64521, "lon": 35.42147}, {"image_id": "1915456662165202", "city_id": 435, "city": "Reading", "country": "United States", "lat": 39.22367, "lon": -84.44216}, {"image_id": "1442705876195570", "city_id": 5884, "city": "Jiuquan", "country": "China", "lat": 39.74318, "lon": 98.51736}, {"image_id": "1354016954997770", "city_id": 2699, "city": "Ballymote", "country": "Ireland", "lat": 54.08333, "lon": -8.51667}, {"image_id": "1690818161433829", "city_id": 9543, "city": "Corvara in Badia", "country": "Italy", "lat": 46.55037, "lon": 11.87342}, {"image_id": "1360749437636345", "city_id": 4057, "city": "Ur\u010dice", "country": "Czech Republic", "lat": 49.43045, "lon": 17.07291}, {"image_id": "1520702552149798", "city_id": 3108, "city": "Luj\u00e1n", "country": "Argentina", "lat": -34.5664, "lon": -59.11478}, {"image_id": "2386022698255276", "city_id": 9792, "city": "Kispest", "country": "Hungary", "lat": 47.4515, "lon": 19.14017}, {"image_id": "1362298277781357", "city_id": 310, "city": "Rzg\u00f3w", "country": "Poland", "lat": 51.66345, "lon": 19.49181}, {"image_id": "1394200150948706", "city_id": 3345, "city": "Ucluelet", "country": "Canada", "lat": 48.94153, "lon": -125.54635}, {"image_id": "1362623031133589", "city_id": 8650, "city": "Lents", "country": "United States", "lat": 45.47984, "lon": -122.56731}, {"image_id": "1602213683650344", "city_id": 4005, "city": "Tausa", "country": "Colombia", "lat": 5.19903, "lon": -73.89128}, {"image_id": "1357054631655664", "city_id": 835, "city": "Kale", "country": "Turkey", "lat": 40.38688, "lon": 39.68332}, {"image_id": "1399802623746322", "city_id": 5504, "city": "Heiterwang", "country": "Austria", "lat": 47.45, "lon": 10.75}, {"image_id": "1477478613194231", "city_id": 6969, "city": "Neukirch/Lausitz", "country": "Germany", "lat": 51.09727, "lon": 14.30789}, {"image_id": "4097336260334297", "city_id": 6374, "city": "Tysmenytsia", "country": "Ukraine", "lat": 48.9036, "lon": 24.84695}, {"image_id": "1454588905147770", "city_id": 8047, "city": "Glareu", "country": "C\u00f4te d'Ivoire", "lat": 6.6728, "lon": -8.27193}, {"image_id": "2162702710578710", "city_id": 2685, "city": "Tiakur", "country": "Indonesia", "lat": -8.15, "lon": 127.795}, {"image_id": "1361373521461481", "city_id": 4270, "city": "Sch\u00f6ffengrund", "country": "Germany", "lat": 50.49345, "lon": 8.47183}, {"image_id": "1638776793557068", "city_id": 2441, "city": "Torre Mondov\u00ec", "country": "Italy", "lat": 44.35283, "lon": 7.89964}, {"image_id": "1352871488698653", "city_id": 4940, "city": "Hinton", "country": "United Kingdom", "lat": 52.16798, "lon": -1.21837}, {"image_id": "1371446250479975", "city_id": 9216, "city": "Daisen", "country": "Japan", "lat": 39.44116, "lon": 140.48961}, {"image_id": "1352514345149179", "city_id": 5711, "city": "Eiken", "country": "Switzerland", "lat": 47.53361, "lon": 7.98801}, {"image_id": "1357731478157260", "city_id": 9816, "city": "Manonjaya", "country": "Indonesia", "lat": -7.3509, "lon": 108.3087}, {"image_id": "1908063056247630", "city_id": 2046, "city": "Rypefjord", "country": "Norway", "lat": 70.64126, "lon": 23.67213}, {"image_id": "1618581122044875", "city_id": 4360, "city": "Moral de Calatrava", "country": "Spain", "lat": 38.82989, "lon": -3.57813}, {"image_id": "1399802623746322", "city_id": 4075, "city": "Ponitz", "country": "Germany", "lat": 50.85762, "lon": 12.42309}, {"image_id": "1436220856781898", "city_id": 153, "city": "Carigara", "country": "Philippines", "lat": 11.29811, "lon": 124.67895}, {"image_id": "1487092785324277", "city_id": 5448, "city": "Wundschuh", "country": "Austria", "lat": 46.92639, "lon": 15.45111}, {"image_id": "1422957395271758", "city_id": 9530, "city": "Galluccio", "country": "Italy", "lat": 41.35232, "lon": 13.95372}, {"image_id": "1430653967746218", "city_id": 4672, "city": "Sainte-Gemme-la-Plaine", "country": "France", "lat": 46.48372, "lon": -1.1122}, {"image_id": "1443594019705124", "city_id": 8875, "city": "Middletown", "country": "United States", "lat": 40.39428, "lon": -74.11709}, {"image_id": "1368430730406124", "city_id": 3705, "city": "Uintah", "country": "United States", "lat": 41.14411, "lon": -111.92327}, {"image_id": "1611099659230496", "city_id": 9410, "city": "Gairo Sant'Elena", "country": "Italy", "lat": 39.84972, "lon": 9.50472}, {"image_id": "1429944290701121", "city_id": 1177, "city": "Shumskiy", "country": "Russian Federation", "lat": 54.8318, "lon": 99.1328}, {"image_id": "1367533786957806", "city_id": 7839, "city": "Gal\u00e1tsi", "country": "Greece", "lat": 38.01667, "lon": 23.75}, {"image_id": "1376991032743627", "city_id": 6333, "city": "K\u00f6m\u00fcrl\u00fc", "country": "Turkey", "lat": 40.73539, "lon": 42.28819}, {"image_id": "1437251496891831", "city_id": 6261, "city": "Gumdag", "country": "Turkmenistan", "lat": 39.20611, "lon": 54.59056}, {"image_id": "1362529574458392", "city_id": 3616, "city": "Lake Mills", "country": "United States", "lat": 43.08139, "lon": -88.91177}, {"image_id": "1372787999976260", "city_id": 8574, "city": "Bridgeport", "country": "United States", "lat": 41.17923, "lon": -73.18945}, {"image_id": "1377248582768561", "city_id": 2675, "city": "Sindangratu", "country": "Indonesia", "lat": -7.4651, "lon": 107.6718}, {"image_id": "1361211760926379", "city_id": 9212, "city": "Kasumigaura", "country": "Japan", "lat": 36.15326, "lon": 140.24635}, {"image_id": "1360749437636345", "city_id": 4280, "city": "Roskilde", "country": "Denmark", "lat": 55.64152, "lon": 12.08035}, {"image_id": "1383205938718827", "city_id": 1247, "city": "\u015eendriceni", "country": "Romania", "lat": 47.95171, "lon": 26.32817}, {"image_id": "1373369093373508", "city_id": 9199, "city": "Yokote", "country": "Japan", "lat": 39.31691, "lon": 140.55034}, {"image_id": "1451211778937530", "city_id": 4583, "city": "Uusikaupunki", "country": "Finland", "lat": 60.80043, "lon": 21.40841}, {"image_id": "1362848725104125", "city_id": 2271, "city": "Rigolato", "country": "Italy", "lat": 46.55393, "lon": 12.84619}, {"image_id": "1384105655282447", "city_id": 7851, "city": "Ptolema\u1e2fda", "country": "Greece", "lat": 40.51472, "lon": 21.67861}, {"image_id": "1365093980728086", "city_id": 2147, "city": "Bambas", "country": "Peru", "lat": -8.6, "lon": -78.0}, {"image_id": "1354620691597995", "city_id": 7835, "city": "N\u00e9a M\u00e1kri", "country": "Greece", "lat": 38.08733, "lon": 23.97642}, {"image_id": "4248223925210782", "city_id": 2728, "city": "Thanna Mandi", "country": "India", "lat": 33.54204, "lon": 74.381}, {"image_id": "1360922997893960", "city_id": 2928, "city": "Goz\u00e9e", "country": "Belgium", "lat": 50.33461, "lon": 4.35273}, {"image_id": "1370842310054567", "city_id": 4191, "city": "Friedberg", "country": "Germany", "lat": 48.35693, "lon": 10.98461}, {"image_id": "1413226335747933", "city_id": 427, "city": "Wallburg", "country": "United States", "lat": 36.01014, "lon": -80.13921}, {"image_id": "3611853405591409", "city_id": 4118, "city": "Minfeld", "country": "Germany", "lat": 49.07167, "lon": 8.14528}, {"image_id": "1667651463435778", "city_id": 9633, "city": "Gaverina Terme", "country": "Italy", "lat": 45.75578, "lon": 9.88666}, {"image_id": "1565591820499155", "city_id": 6635, "city": "Krapivinskiy", "country": "Russian Federation", "lat": 54.9992, "lon": 86.8133}, {"image_id": "1484910201889723", "city_id": 8271, "city": "El Ojuelo", "country": "Mexico", "lat": 21.40167, "lon": -101.8375}, {"image_id": "1364873097323691", "city_id": 8693, "city": "Oak Grove", "country": "United States", "lat": 33.9809, "lon": -81.14286}, {"image_id": "1849543421876209", "city_id": 1085, "city": "Novorossiysk", "country": "Russian Federation", "lat": 44.72439, "lon": 37.76752}, {"image_id": "1536191913392711", "city_id": 6432, "city": "Hrushivka", "country": "Ukraine", "lat": 48.02453, "lon": 30.93492}, {"image_id": "1459645934375611", "city_id": 4704, "city": "Pleumartin", "country": "France", "lat": 46.73754, "lon": 0.76592}, {"image_id": "4121674121245052", "city_id": 2266, "city": "Romagnano Sesia", "country": "Italy", "lat": 45.63279, "lon": 8.38697}, {"image_id": "1370842310054567", "city_id": 8367, "city": "Tiel", "country": "Netherlands", "lat": 51.88667, "lon": 5.42917}, {"image_id": "1362307524286537", "city_id": 328, "city": "Br\u016bq\u012bn", "country": "West Bank and Gaza Strip", "lat": 32.07216, "lon": 35.09943}, {"image_id": "1991689134506838", "city_id": 572, "city": "Blue Earth", "country": "United States", "lat": 43.63746, "lon": -94.10218}, {"image_id": "1690818161433829", "city_id": 2249, "city": "Sant'Andrea di Conza", "country": "Italy", "lat": 40.84482, "lon": 15.36965}, {"image_id": "1400925130268431", "city_id": 480, "city": "Little Elm", "country": "United States", "lat": 33.16262, "lon": -96.93751}, {"image_id": "1360353617907621", "city_id": 573, "city": "Cross Lake", "country": "United States", "lat": 46.65941, "lon": -94.11387}, {"image_id": "1552254795113481", "city_id": 6290, "city": "K\u0131z\u0131ltepe", "country": "Turkey", "lat": 37.18836, "lon": 40.57723}, {"image_id": "1407180406846831", "city_id": 4294, "city": "Calibishie", "country": "Dominica", "lat": 15.59297, "lon": -61.34901}, {"image_id": "1644211672444248", "city_id": 1738, "city": "La L\u00ednea", "country": "Mexico", "lat": 16.13078, "lon": -94.03563}, {"image_id": "1487092785324277", "city_id": 8021, "city": "Sinsheim", "country": "Germany", "lat": 49.2529, "lon": 8.87867}, {"image_id": "1363710647578901", "city_id": 6693, "city": "Spermezeu", "country": "Romania", "lat": 47.3, "lon": 24.15}, {"image_id": "1727183317469540", "city_id": 6001, "city": "Nenjiang", "country": "China", "lat": 49.17405, "lon": 125.21967}, {"image_id": "1356274524735282", "city_id": 6168, "city": "Ra\u010de", "country": "Slovenia", "lat": 46.45194, "lon": 15.68139}, {"image_id": "1437705263300290", "city_id": 5551, "city": "Mansfield", "country": "Australia", "lat": -37.052, "lon": 146.08846}, {"image_id": "3611853405591409", "city_id": 2399, "city": "Cadine", "country": "Italy", "lat": 46.0896, "lon": 11.06847}, {"image_id": "1439200766418243", "city_id": 7428, "city": "Villecroze", "country": "France", "lat": 43.58223, "lon": 6.27587}, {"image_id": "1382814675912936", "city_id": 3287, "city": "Tannum Sands", "country": "Australia", "lat": -23.94749, "lon": 151.36749}, {"image_id": "1607582072780752", "city_id": 9149, "city": "Blue Grass", "country": "United States", "lat": 41.50892, "lon": -90.76598}, {"image_id": "1371193156757504", "city_id": 940, "city": "Warrior", "country": "United States", "lat": 33.81427, "lon": -86.80944}, {"image_id": "1391329301241889", "city_id": 6577, "city": "Medvezh\u2019i Oz\u00ebra", "country": "Russian Federation", "lat": 55.86935, "lon": 37.98613}, {"image_id": "1362677364625399", "city_id": 1842, "city": "Ejido Yucat\u00e1n", "country": "Mexico", "lat": 32.60435, "lon": -115.0938}, {"image_id": "3211306289144937", "city_id": 3817, "city": "Carletonville", "country": "South Africa", "lat": -26.36094, "lon": 27.39767}, {"image_id": "1463901543993013", "city_id": 9179, "city": "Hickman", "country": "United States", "lat": 36.57117, "lon": -89.18618}, {"image_id": "1867249026771661", "city_id": 919, "city": "Aleksandrovka", "country": "Ukraine", "lat": 45.57654, "lon": 34.09947}, {"image_id": "1364753770578523", "city_id": 7144, "city": "Jaib\u00f3n", "country": "Dominican Republic", "lat": 19.61169, "lon": -71.14847}, {"image_id": "2455747044587027", "city_id": 7150, "city": "T\u00e9bessa", "country": "Algeria", "lat": 35.40417, "lon": 8.12417}, {"image_id": "1615685372295042", "city_id": 572, "city": "Blue Earth", "country": "United States", "lat": 43.63746, "lon": -94.10218}, {"image_id": "2860599504244530", "city_id": 7801, "city": "Hainault", "country": "United Kingdom", "lat": 51.60836, "lon": 0.10716}, {"image_id": "1422957395271758", "city_id": 895, "city": "Maliyivka", "country": "Ukraine", "lat": 47.48547, "lon": 32.73167}, {"image_id": "1359092631138532", "city_id": 2583, "city": "Moron", "country": "Haiti", "lat": 18.56039, "lon": -74.25777}, {"image_id": "2977432225865572", "city_id": 4394, "city": "Campo de Criptana", "country": "Spain", "lat": 39.40463, "lon": -3.12492}, {"image_id": "1423182498577201", "city_id": 8729, "city": "San Timoteo", "country": "Venezuela, Bolivarian Rep. of", "lat": 9.7901, "lon": -71.07084}, {"image_id": "1463673997898108", "city_id": 8054, "city": "Diangokokokro", "country": "C\u00f4te d'Ivoire", "lat": 6.95434, "lon": -4.69679}, {"image_id": "1709695896223313", "city_id": 6092, "city": "Candelaria", "country": "Colombia", "lat": 3.40671, "lon": -76.34819}, {"image_id": "1517877729120689", "city_id": 5707, "city": "Flawil", "country": "Switzerland", "lat": 47.41301, "lon": 9.18324}, {"image_id": "1400249948033128", "city_id": 3086, "city": "Fush\u00eb-Kruj\u00eb", "country": "Albania", "lat": 41.47833, "lon": 19.71778}, {"image_id": "1396514224015724", "city_id": 2701, "city": "South Dublin", "country": "Ireland", "lat": 53.29026, "lon": -6.34151}, {"image_id": "1356115858452833", "city_id": 964, "city": "Keystone", "country": "United States", "lat": 28.15585, "lon": -82.62121}, {"image_id": "1356738004860481", "city_id": 2376, "city": "Cetara", "country": "Italy", "lat": 40.64756, "lon": 14.70091}, {"image_id": "1360447274719839", "city_id": 9150, "city": "Clinton", "country": "United States", "lat": 41.84447, "lon": -90.18874}, {"image_id": "1360421921011460", "city_id": 2002, "city": "Scharn", "country": "Netherlands", "lat": 50.85, "lon": 5.73333},